"id","nom_estab","raz_social","codigo_act","nombre_act","per_ocu","tipo_vial","nom_vial","tipo_v_e_1","nom_v_e_1","tipo_v_e_2","nom_v_e_2","tipo_v_e_3","nom_v_e_3","numero_ext","letra_ext","edificio","edificio_e","numero_int","letra_int","tipo_asent","nomb_asent","tipoCenCom","nom_CenCom","num_local","cod_postal","cve_ent","entidad","cve_mun","municipio","cve_loc","localidad","ageb","manzana","telefono","correoelec","www","tipoUniEco","latitud","longitud","fecha_alta"
"6186029","MAQUINARIA Y CONSTRUCCIONES CAFA, S.A. DE C.V.","MAQUINARIA Y CONSTRUCCIONES CAFA, S.A. DE C.V.","212321","Minería de arena y grava para la construcción","11 a 30 personas","CARRETERA","CARRETERA FEDERAL LIBRE TRAMO AGUASCALIENTES JESÚS GÓMEZ PORTUGAL KILÓMETRO 54","CALLE","NINGUNO","CALLE","NINGUNO","CALLE","NINGUNO","0","SN",,,"0",,,"PLANTA DE ASFALTO UNO",,,,"20980","01","AGUASCALIENTES","005","Jesús María","0015","Cañada el Rodeo","004A","005","4499229222","CAFA@CAFA.COM.MX","WWW.CAFA.COM.MX","Fijo","21.90630822","-102.45627253","MARZO 2011"
"6186016","MATERIALES GERO","MATERIALES GERO  S.A. DE C.V.","212321","Minería de arena y grava para la construcción","11 a 30 personas","AVENIDA","LIBRAMIENTO CALVILLO-JALPA","CALLE","NINGUNO","CALLE","NINGUNO","CALLE","NINGUNO","0","SN",,,"0",,,"CALVILLO",,,,"20000","01","AGUASCALIENTES","003","Calvillo","0001","Calvillo","0153","019","4959563563",,,"Fijo","21.83937726","-102.72405796","DICIEMBRE 2014"
"6186020","MATERIALES PARA LA CONSTRUCCIÓN SIN NOMBRE",,"212321","Minería de arena y grava para la construcción","0 a 5 personas","BOULEVARD","BOULEVARD RODOLFO LANDEROS GALLEGOS","CALLE","NINGUNO","CALLE","NINGUNO","CALLE","NINGUNO","0","SN",,,"0",,,"LOCALIDAD LOS ARCOS",,,,"20000","01","AGUASCALIENTES","003","Calvillo","0383","La Fragua","0064","800","4951081141",,,"Fijo","21.87361111","-102.67416667","JULIO 2010"
"6186028","MATERIALES PUENTE NEGRO DE COSIO, S.A. DE C.V.","MATERIALES PUENTE NEGRO DE COSIO, S.A. DE C.V.","212321","Minería de arena y grava para la construcción","51 a 100 personas","AVENIDA","MORELOS","CALLE","IGNACIO ALLENDE PONIENTE","CALLE","FRANCISCO I. MADERO","CALLE","LIBERTAD","217",,,,"0",,"COLONIA","CENTRO",,,,"20400","01","AGUASCALIENTES","007","Rincón de Romos","0001","Rincón de Romos","0059","021","014659510588","PUENTENEGRO@PRODIGY.NET.MX",,"Fijo","22.23086043","-102.32099578","JULIO 2010"
"6186021","MATERIALES TRITURADOS DE AGUASCALIENTES, S.A. DE C.V.","MATERIALES TRITURADOS DE AGUASCALIENTES, S.A. DE C.V.","212321","Minería de arena y grava para la construcción","11 a 30 personas","CALLE","LIBERTAD","AVENIDA","CONVENCIÓN DE 1914 NORTE","CALLE","MARGIL DE JESÚS","CALLE","ACACIA","1608",,,,"0",,"EXHACIENDA","ARBOLEDAS",,,,"20020","01","AGUASCALIENTES","001","Aguascalientes","0001","Aguascalientes","0290","017","4499147441","MATRASA@AGUASCALIENTES.COM","WWW.MATRASA.COM.MX","Fijo","21.89940035","-102.30102828","JULIO 2010"
"6186026","MINA EL CHISPAZO",,"212319","Minería de otras piedras dimensionadas","0 a 5 personas","CALLE","CALLE FRANCISCO I. MADERO","CALLE","AVENIDA REVOLUCIÓN","CALLE","MARAVILLAS","CALLE","19 DE MARZO","106",,,,"0",,"PARAJE","LOC. TERRERO DE LA LABOR",,,,"20890","01","AGUASCALIENTES","003","Calvillo","0095","El Terrero de la Labor","0026","005","4951012170",,,"Fijo","22.02567265","-102.67212115","JULIO 2010"
"6186025","MINA EL ENCINO",,"212399","Minería de otros minerales no metálicos","6 a 10 personas","CALLE","AVENIDA REVOLUCIÓN","CALLE","NINGUNO","CALLE","NINGUNO","CALLE","NINGUNO","2",,,,"0",,,"LOCALIDAD TERRERO DE LA LABOR",,,,"20890","01","AGUASCALIENTES","003","Calvillo","0095","El Terrero de la Labor","0026","025","4951095519",,,"Fijo","22.0225798","-102.67154925","JULIO 2010"
"6186024","MINA LAS ANGELICAS",,"212399","Minería de otros minerales no metálicos","0 a 5 personas","CALLE","ARTÍCULO 115 DE LA CONSTITUCIÓN","CALLE","ALLENDE","CALLE","NINGUNO","CALLE","ALLENDE","303",,,,"0",,"COLONIA","CENTRO",,,,"20000","01","AGUASCALIENTES","003","Calvillo","0001","Calvillo","0204","037",,,,"Fijo","21.84443334","-102.7181732","DICIEMBRE 2014"
"6186023","MINA LOS MAGUEYES","BEADRY FIRE AGATE VENTURE, S.A. DE C.V.","212399","Minería de otros minerales no metálicos","6 a 10 personas","CARRETERA","CARRETERA A SIERRA FRÍA","CALLE","NINGUNO","CALLE","NINGUNO","CALLE","NINGUNO","0","KILÓMETRO 17",,,"0",,,"LOCALIDAD EL TEMAZCAL",,,,"20830","01","AGUASCALIENTES","003","Calvillo","0090","Temazcal","0030","005","4959026052","BEAUDRYAGS@PRODIGY.NET.MX",,"Fijo","22.00456362","-102.71845158","MARZO 2011"
"6186015","MINERA REAL DE ANGELES, S.A. DE C.V.","MINERA REAL DE ANGELES, S.A. DE C.V.","212222","Minería de plata","251 y más personas","CARRETERA","CARRETERA FEDERAL LIBRE 22 TRAMO TEPEZALA ASIENTOS KILÓMETRO 26","CALLE","NINGUNO","CALLE","NINGUNO","CALLE","NINGUNO","0","SN",,,"0",,,"SANTUARIO DEL TEPOZAN",,,,"20712","01","AGUASCALIENTES","002","Asientos","0253","Santuario del Tepozán","0014","800","4492358206",,,"Fijo","22.22972222","-102.105","JULIO 2010"
"6186018","MINERÍA DE OTRAS PIEDRAS DIMENSIONADAS",,"212319","Minería de otras piedras dimensionadas","6 a 10 personas","CARRETERA","CARRETERA AGUASCALIENTES- VILLA HIDALGO",,"NINGUNO",,"NINGUNO",,"NINGUNO","0","KILÓMETRO 14",,,"0",,"EJIDO","LOC. EJIDO LOS CAÑOS",,,,"20000","01","AGUASCALIENTES","001","Aguascalientes","0907","El Catorce","1941","800","4491003314",,,"Fijo","21.79277778","-102.07555556","DICIEMBRE 2014"
"6186014","OBRAS MINERAS Y TIROS DEL CENTRO SA DE CV","OBRAS MINERAS Y TIROS DEL CENTRO SA DE CV","213119","Otros servicios relacionados con la minería","0 a 5 personas","CALLE","ESTADOS UNIDOS","CALLE","JAPÓN","CALLE","CANADÁ","AVENIDA","SAN FRANCISCO DE LOS ROMO PONIENTE","110",,,,,,"PARQUE INDUSTRIAL","PARQUE INDUSTRIAL SAN FRANCISCO IV ETAPA","PARQUE INDUSTRIAL","PARQUE INDUSTRIAL SAN FRANCISCO IV ETAPA","110","20304","01","AGUASCALIENTES","011","San Francisco de los Romo","0035","Granja María","009A","800",,,,"Fijo","22.03690164","-102.27489229","JULIO 2010"
"6186017","PAVIMENTOS Y CONSTRUCCIONES DE AGUASCALIENTES, S.A. DE C.V.","PAVIMENTOS Y CONSTRUCCIONES DE AGUASCALIENTES  S.A. DE C.V.","212321","Minería de arena y grava para la construcción","31 a 50 personas","CALLE","GENERAL MIGUEL BARRAGÁN","CALLE","ALFREDO LEWIS","CALLE","DOCTOR CARLOS M LÓPEZ","CALLE","ISIDRO CALERA","1507","A",,,"0",,"COLONIA","GREMIAL",,,,"20030","01","AGUASCALIENTES","001","Aguascalientes","0001","Aguascalientes","0375","016","4491461821","PAVYCONSA@YAHOO.COM.MX",,"Fijo","21.8993115","-102.29225308","JULIO 2010"
"6186022","SACROSA TRITURADOS DE AGUASCALIENTES","SACROSA TRITURADOS DE AGUASCALIENTES","212321","Minería de arena y grava para la construcción","11 a 30 personas","CALLE","PONCIANO ARRIAGA","CALLE","FRAY SERVANDO TERESA DE MIER","CALLE","FRANCISCO I. MADERO","CALLE","GUILLERMO PRIETO","204",,,,"0",,,"PABELLÓN DE HIDALGO RINCÓN",,,,"20665","01","AGUASCALIENTES","006","Pabellón de Arteaga","0249","San Agustín de los Puentes","0047","002","14659949204","SACROSA@HOTMAIL.COM",,"Fijo","22.11069175","-102.31376615","JULIO 2010"
"6711615","TIIPSA","TIIPSA, S. DE R.L. DE C.V.","212321","Minería de arena y grava para la construcción","6 a 10 personas","CALLE","JOSÉ BARBA ALONSO","CALLE","ANSELMO LÓPEZ ARÁMBULA","AVENIDA","JULIO DÍAZ TORRE C-26N","CALLE","ROBERTO DÍAZ RODRÍGUEZ","204","0",,,,,"FRACCIONAMIENTO","CIUDAD INDUSTRIAL","PARQUE INDUSTRIAL","CIUDAD INDUSTRIAL","204","20290","01","AGUASCALIENTES","001","Aguascalientes","0001","Aguascalientes","1477","009","014493001139","DAVID.GONZALEZ@TIIPSA.COM.MX",,"Fijo","21.83311988","-102.28201673","ENERO 2016"
"6186027","TRITURADOS ESPECIALIZADOS J.M. SRLMI., C.V.",,"212321","Minería de arena y grava para la construcción","0 a 5 personas","BOULEVARD","LIBRAMIENTO CALVILLO-JALPA","CALLE","NINGUNO","CALLE","NINGUNO","CALLE","NINGUNO","0","KILÓMETRO 3.8",,,"0",,,"CALVILLO",,,,"20000","01","AGUASCALIENTES","003","Calvillo","0001","Calvillo","0153","014",,,,"Fijo","21.84123741","-102.73509206","MARZO 2011"
"6189265","TRITURADOS Y PREMEZCLADOS DE AGS, S.A. DE C.V.","TRITURADOS Y PREMEZCLADOS DE AGUASCALIENTES  S.A. DE C.V.","212321","Minería de arena y grava para la construcción","11 a 30 personas","BOULEVARD","BOULEVARD A JOSÉ MARÍA CHÁVEZ",,,,,,,"2210",,,,"0",,,"CIUDAD INDUSTRIAL","CIUDAD INDUSTRIAL","SIN NOMBRE","SN","20290","01","AGUASCALIENTES","001","Aguascalientes","0001","Aguascalientes","1477","013",,"TRIPRESA@YAHOO.COM.MX",,"Fijo","21.832131","-102.288305","DICIEMBRE 2014"
"6186019","TRITURADOS Y PREMEZCLADOS DE AGUASCALIENTES  S.A. DE C.V.","TRITURADOS Y PREMESCLADOS DE AGUASCALIENTES, S.A. DE C.V.","212321","Minería de arena y grava para la construcción","11 a 30 personas","CARRETERA","CARRETERA TEPEZALA-ASIENTOS","CALLE","PEDRO VAGA KEGEL","AVENIDA","ROBERTO DÍAZ RODRÍGUEZ","CALLE","JOSÉ MARÍA ROMO","2210","SN",,,"0",,"COTO","EJIDO TEPEZALA",,,,"20000","01","AGUASCALIENTES","001","Aguascalientes","7215","Localidad económica","1250","800","4499710824","TRIPRESA@YAHOO.COM.MX",,"Fijo","21.68635965","-102.23723636","DICIEMBRE 2014"
"6186035","AGREGADOS Y CONSTRUCCIONES DEL PACIFICO, S.A. DE C.V.","AGREGADOS Y CONSTRUCCIONES DEL PACIFICO, S.A. DE C.V.","212321","Minería de arena y grava para la construcción","0 a 5 personas","ANDADOR","ANDADOR VECINAL","BOULEVARD","2000","CARRETERA","CARRETERA LIBRE A TECATE",,"NINGUNO","21837",,,,"0",,"COLONIA","EL REALITO DELEGACIÓN LA PRESA",,,,"22250","02","BAJA CALIFORNIA","004","Tijuana","1949","El Realito","2166","800","6646450201","AQRCONST@PRODIGY.NET",,"Fijo","32.44388889","-116.87444444","JULIO 2010"
"6694029","ARENAS PROCESADAS DE MEXICALI","ARENAS PROCESADAS DE MEXICALI","212321","Minería de arena y grava para la construcción","0 a 5 personas",,"EJIDO HERIBERTO JARA",,"NINGUNO","OTRA (ESPECIFICAR)","NINGUNO","OTRA (ESPECIFICAR)","NINGUNO",,"KILÓMETRO 53",,,,,"COTO","HERIBERTO JARA",,,,"21360","02","BAJA CALIFORNIA","002","Mexicali","2887","Calizas [Industrias]","3437","800","16865624858","DIRECTIVOS@GRUPOLOTIFICADORA.COM",,"Fijo","32.52671005","-115.59472244","ENERO 2016"
"6186061","ARROYO AMARGO, S.P.R. DE RL",,"212321","Minería de arena y grava para la construcción","6 a 10 personas","CARRETERA","TRANSPENINSULAR","CALLE","LOS PESCADORES","CALLE","NINGUNO","CALLE","MEDUSAS","27",,,,"0",,"EJIDO","VALLE TRANQUILO",,,,"22960","02","BAJA CALIFORNIA","001","Ensenada","1946","Ejido Valle Tranquilo","7076","008","6161010046","ALAYNRANGEL@HOTMAIL.COM",,"Fijo","30.29043928","-115.80244856","JULIO 2010"
"6186038","B.C. MINING CO., S.A. DE C.V.","B.C. MINING CO., S.A. DE C.V.","212291","Minería de manganeso","11 a 30 personas","CALLE","SEGUNDA Y/O JUAN RODRÍGUEZ CARRILLO","AVENIDA","RAYÓN","AVENIDA","ITURBIDE","BOULEVARD","ADOLFO LÓPEZ MATEOS","1762",,,,"0",,"COLONIA","ZONA CENTRO",,,,"22830","02","BAJA CALIFORNIA","001","Ensenada","0001","Ensenada","076A","027","016461764404","JPS_1962@YAHOO.COM.MX",,"Fijo","31.85883281","-116.61208314","JUNIO 2012"
"6186039","CALIFORNIAN MINERS EMPORIUM","CALIFORNIAN MINERS EMPORIUM, S. DE R.L. DE C.V.","212393","Minería de barita","6 a 10 personas","AVENIDA","DIAMANTE","AVENIDA","PÍPILA","AVENIDA","JOSEFA ORTIZ DE DOMÍNGUEZ","AVENIDA","16 DE SEPTIEMBRE","155",,,,"0",,"FRACCIONAMIENTO","BAHÍA SUR",,,,"22880","02","BAJA CALIFORNIA","001","Ensenada","0001","Ensenada","7860","027","6461765508","CAPEANDRADRE@HOTMAIL.COM",,"Fijo","31.85709919","-116.59624783","MARZO 2011"
"6186060","CAMPESINOS MENDOZA SANCHES, S.P.R. DE RL","CAMPESINOS MENDOZA SANCHES, S.P.R. DE R.L.","212321","Minería de arena y grava para la construcción","11 a 30 personas","CARRETERA","TRANSPENINSULAR","CALLE","NINGUNO","CALLE","NINGUNO","CALLE","NINGUNO","57",,,,"0",,"PARAJE","EL ROSARIO DE ARRIBA",,,,"22960","02","BAJA CALIFORNIA","001","Ensenada","2465","El Rosario","6256","800","6161182930",,,"Fijo","32.07611111","-116.57916667","JULIO 2010"
"6285375","CAMPO DE BASEBALL","EXPORTADORA DE SAL SA DE CV","212391","Minería de sal","0 a 5 personas",,"NINGUNO",,"NINGUNO",,"NINGUNO",,"NINGUNO",,"SN",,,,,"COLONIA","PUNTA MORRO REDONDO",,,,"22990","02","BAJA CALIFORNIA","001","Ensenada","4444","El Morro","9922","079",,,,"Fijo","28.03617374","-115.1866302","JULIO 2010"
"6231004","CENTRO MULTIPLE DEPORTIVO","EXPORTADORA DE SAL SA DE CV","212391","Minería de sal","0 a 5 personas",,"NINGUNO",,"NINGUNO",,"NINGUNO",,"NINGUNO",,"SN",,,,,"COLONIA","PUNTA MORRO REDONDO",,,,"22990","02","BAJA CALIFORNIA","001","Ensenada","4444","El Morro","9922","076",,,,"Fijo","28.04154923","-115.1923322","JULIO 2010"
"6285377","CIUDAD DEPORTIVA DE FUTBOL Y BASEBALL","EXPORTADORA DE SAL SA DE CV","212391","Minería de sal","0 a 5 personas",,"NINGUNO",,"NINGUNO",,"NINGUNO",,"NINGUNO",,"SN",,,,,"COLONIA","PUNTA MORRO REDONDO",,,,"22990","02","BAJA CALIFORNIA","001","Ensenada","4444","El Morro","9922","041",,,,"Fijo","28.04912425","-115.1911581","JULIO 2010"
"6727721","CNP INTERNATIONAL, S. DE R.L. DE C.V.","CNP INTERNATIONAL, S. DE R.L. DE C.V.","212393","Minería de barita","6 a 10 personas","CALLE","NINGUNO","PRIVADA","NINGUNO","PRIVADA","NINGUNO","PRIVADA","NINGUNO","20051","4",,,"0","PLAT-4","COLONIA","BAJA MAQ EL AGUILA",,,,"22215","02","BAJA CALIFORNIA","004","Tijuana","0001","Tijuana","5832","024","016646255101","PABLOM@ATCGLOBALINC.COM",,"Fijo","32.49695181","-116.91344115","ENERO 2016"
"6285376","COMEDOR DE EXPORTADORA DE SAL ISLA DE CEDROS","EXPORTADORA DE SAL SA DE CV","212391","Minería de sal","0 a 5 personas",,"NINGUNO",,"NINGUNO",,"NINGUNO",,"NINGUNO",,"SN",,,,,"COLONIA","EL MORRO REDONDO",,,,"22990","02","BAJA CALIFORNIA","001","Ensenada","4444","El Morro","9922","007",,,,"Fijo","28.03876262","-115.18774726","JULIO 2010"
"6716579","COMERCIALIZADORA DE MATERIALES PETREOS VARIOS, S.A. DE C.V.","COMERCIALIZADORA DE MATERIALES PETREOS VARIOS, S.A. DE C.V.","212321","Minería de arena y grava para la construcción","0 a 5 personas","TERRACERÍA","NINGUNO","CALLE","ENSENADA","CALLE","ENSENADA","CALLE","ENSENADA",,"SN",,,,,"PUEBLO","SANTA VERONICA",,,,"21449","02","BAJA CALIFORNIA","003","Tecate","0209","Rancho Concordia","0849","800","016656544345",,,"Fijo","32.4612991","-116.32044642","ENERO 2016"
"6186031","CONCECION EJIDO CHAPALA",,"212321","Minería de arena y grava para la construcción","6 a 10 personas","AVENIDA","LUIS ALCERREGA","CALLE","ABELARDO L. RODRÍGUEZ","CALLE","PLUTARCO ELIAS CALLES","AVENIDA","JOSÉ MARÍA MORELOS","616",,,,"0",,"EJIDO","EJIDO NUEVO BAJA CALIFORNIA",,,,"22940","02","BAJA CALIFORNIA","001","Ensenada","0133","Lázaro Cárdenas","7273","034","6161653755",,,"Fijo","30.52474271","-115.93919799","JULIO 2010"
"6186034","CONSTRUCTORA GALLEGO, S.A. DE C.V.","CONSTRUCTORA GALLEGO, S.A. DE C.V.","212321","Minería de arena y grava para la construcción","11 a 30 personas","CARRETERA","CARRETERA SAN FELIPE","TERRACERÍA","NINGUNO","TERRACERÍA","NINGUNO","TERRACERÍA","NINGUNO","0","KILÓMETRO 41+500",,,"0",,,"EL FARO",,,,"21384","02","BAJA CALIFORNIA","002","Mexicali","1456","Los Gallegos (Colonia Colorado Número Dos)","5645","800","6865636477","ANGHY12000@YAHOO.COM.MX",,"Fijo","32.56426111","-115.41248611","DICIEMBRE 2014"
"6710236","CONSTRUCTORA Y PERFORADORA LATINA","CONSTRUCTORA Y PERFORADORA LATINA, S.A. DE C.V.","213111","Perforación de pozos petroleros y de gas","0 a 5 personas","CARRETERA","ESTATAL 2","CALLE","NINGUNO","CALLE","NINGUNO","CALLE","NINGUNO","0","SN",,,"0",,"EJIDO","HIDALGO",,,,"21705","02","BAJA CALIFORNIA","002","Mexicali","0195","Ejido Miguel Hidalgo","355A","800","016865230930","ERODRIGUEZ@CPLATINA.COM.MX","WWW.CPLATINA.COM","Fijo","32.419029","-115.234582","ENERO 2016"
"6186049","EJIDO BANCO CUERVITOS","EJIDO BANCOS CUERVITOS","212321","Minería de arena y grava para la construcción","11 a 30 personas","CARRETERA","MEXICALI ALGODONES","TERRACERÍA","NINGUNO","TERRACERÍA","NINGUNO","TERRACERÍA","NINGUNO","0","KILÓMETRO 10+500",,,"0",,"EJIDO","BANCO CUERVITOS",,,,,"02","BAJA CALIFORNIA","002","Mexicali","0153","Colonia Cuervitos","3418","800","6585148145","BANCOCUERVITOS@HOTMAIL.COM",,"Fijo","32.66583333","-114.83888889","JULIO 2010"
"6186048","EJIDO COLECTIVO LAZARO CARDENAS","EJIDO COLECTIVO LAZARO CARDENAS","212321","Minería de arena y grava para la construcción","0 a 5 personas","CARRETERA","MEXICALI - ALGODONES","TERRACERÍA","NINGUNO","TERRACERÍA","NINGUNO","TERRACERÍA","NINGUNO","0","15.5",,,"0",,"EJIDO","CUERVITOS",,,,,"02","BAJA CALIFORNIA","002","Mexicali","7240","Localidad económica","3418","800","6861426727","JANO_0305@HOTMAIL.COM",,"Fijo","32.67727799","-114.81545953","JULIO 2010"
"6186056","EJIDO GENERAL HERIBERTO JARA","EJIDO GENERAL HERIBERTO JARA","212321","Minería de arena y grava para la construcción","6 a 10 personas","CARRETERA","MEXICALI-TIJUANA","TERRACERÍA","NINGUNO","TERRACERÍA","NINGUNO","TERRACERÍA","NINGUNO","0","KILÓMETRO 7+500",,,"0",,"EJIDO","HERIBERTO JARA",,,,"21610","02","BAJA CALIFORNIA","002","Mexicali","1121","Ejido Heriberto Jara Sección Coronita","3437","800","6865685261","EJIDOHERIBERTOJARA@HOTMAIL.COM",,"Fijo","32.53916667","-115.52472222","JULIO 2010"
"6186052","EJIDO INDUSTRIAL AÑO DE JUAREZ 1972 S.B.C","EJIDO INDUSTRIAL AÑO DE JUAREZ 1972 S.B.C","212391","Minería de sal","0 a 5 personas","CARRETERA","MEXICALI- SAN FELIPE","TERRACERÍA","NINGUNO","TERRACERÍA","NINGUNO","TERRACERÍA","NINGUNO","0","KILÓMETRO 143",,,"0",,"EJIDO","EJIDO INDUSTRIAL AÑO DE JUÁREZ DE 1972",,,,,"02","BAJA CALIFORNIA","002","Mexicali","0505","Salina Ometepec (NCPE Industrial Año de Juárez 1972)","3761","800","6865573081",,,"Fijo","31.41138889","-114.97972222","JULIO 2010"
"6186047","EJIDO IPOLITO RENTERIA DE SOCIEDAD COLECTIVA","EJIDO IPOLITO RENTERIA DE SOCIEDAD COLECTIVA","212321","Minería de arena y grava para la construcción","0 a 5 personas","CARRETERA","CRRET. MEXICALI SAN FELIPE","CARRETERA","MEXICALI - SAN FELIPE","CALLE","LOS LAURELES","CALLE","LOS SAUCES","0","KILÓMETRO 20",,,"0",,,"EJIDO HIPÓLITO RENTERÍA",,,,,"02","BAJA CALIFORNIA","002","Mexicali","0510","Ejido Hipólito Rentería","3441","003","6861066888",,,"Fijo","32.42581218","-115.3690996","JULIO 2010"
"6186041","EL MAVAR, S. DE P.R. DE R.L.","EL MABAR, S. DE P.R. DE R.L.","212321","Minería de arena y grava para la construcción","11 a 30 personas","CALLE","CALLE DE LA IGLESIA CATÓLICA DEL ROSARIO DE ARRIBA","CALLE","NINGUNO","CALLE","NINGUNO","CALLE","NINGUNO","0","SN",,,"0",,"PUEBLO","EJIDO NUEVO URUAPAN",,,,"22960","02","BAJA CALIFORNIA","001","Ensenada","0598","Nuevo Uruapan","7080","013",,,,"Fijo","30.07179599","-115.71072715","DICIEMBRE 2014"
"6283154","ELECTRA ESTRELLA DE ORO","ELECTRA ESTRELLA DE ORO SA DE CV","212321","Minería de arena y grava para la construcción","11 a 30 personas","BOULEVARD","ADOLFO LÓPEZ MATEOS","BOULEVARD","FINANZAS","CALZADA","SAN MIGUEL EL GRANDE","CALLE","DE LA PROCURADURÍA","2170",,,,,,"COLONIA","FERROCARRIL",,,,"21040","02","BAJA CALIFORNIA","002","Mexicali","0001","Mexicali","298A","071",,,,"Fijo","32.62002887","-115.44717384","JULIO 2010"
"6285373","EXPORTADORA DE SAL","EXPORTADORA DE SAL SA DE CV","212391","Minería de sal","6 a 10 personas",,"NINGUNO",,"NINGUNO",,"NINGUNO",,"NINGUNO",,"SN",,,,,"COLONIA","MORRO REDONDO",,,,"22990","02","BAJA CALIFORNIA","001","Ensenada","0124","Isla de Cedros","9922","003",,,,"Fijo","28.09669415","-115.18775059","JULIO 2010"
"6188990","G Y CANOAS, S.A.P.I. DE C.V.","G Y CANOAS SAPY, S.A. DE C.V.","213119","Otros servicios relacionados con la minería","0 a 5 personas","CALLE","NINGUNO","CALLE","NINGUNO","CALLE","NINGUNO",,"NINGUNO","2186",,,,"0",,"FRACCIONAMIENTO","PLAYA ENSENADA",,,,"22880","02","BAJA CALIFORNIA","001","Ensenada","0001","Ensenada","0632","001","6461521522","SPIMENTEL@GYCANOAS.COM",,"Fijo","31.84597117","-116.61596851","DICIEMBRE 2014"
"6186057","GRUPO CHAPALA NÚMERO 6",,"212321","Minería de arena y grava para la construcción","6 a 10 personas","CALLE","MARIANO MATAMOROS","AVENIDA","LUIS ALCERREGA","AVENIDA","ELIGIO ESQIVEL","CALLE","NINGUNO","203",,,,"0",,"COLONIA","LAZARO CARDENAS",,,,"22930","02","BAJA CALIFORNIA","001","Ensenada","0133","Lázaro Cárdenas","7269","002","6161018034",,,"Fijo","30.52920828","-115.92585542","JULIO 2010"
"6186059","GRUPO DE TRABAJO NÚMERO 2 B","GRUPO DE TRABAJO NÚMERO 2 B","212321","Minería de arena y grava para la construcción","6 a 10 personas","CALLE","DE LOS REPOLLOS","CALLE","TECATE","CALLE","CUARTA","CALLE","NINGUNO","0","SN",,,"0",,"FRACCIONAMIENTO","POPULAR SAN QUINTIN",,,,"22940","02","BAJA CALIFORNIA","001","Ensenada","0857","San Quintín","8271","032","6161653034",,,"Fijo","30.58389842","-115.94445476","DICIEMBRE 2014"
"6186030","GRUPO SEIS DEL EJIDO CHAPALA",,"212321","Minería de arena y grava para la construcción","0 a 5 personas","CALLE","VICENTE GUERRERO","CALLE","VICENTE GUERRERO","CALLE","BENITO JUÁREZ","CALLE","BENITO JUÁREZ","208",,,,"0",,"EJIDO","NUEVO BAJA CALIFORNIA",,,,"22940","02","BAJA CALIFORNIA","001","Ensenada","0078","Ejido Chapala","7019","070","1668363","MARTIN-2102@HOTMAIL.COM",,"Fijo","30.51221811","-116.00360463","JULIO 2010"
"6186055","INDUSTRIAS CALIZAS DE MEXICALI, S.A. DE C.V.","INDUSTRIAS CALIZAS DE MEXICALI, S.A. DE C.V.","212311","Minería de piedra caliza","11 a 30 personas","CARRETERA","POBLADO HERIBERTO JARA","TERRACERÍA","NINGUNO","TERRACERÍA","NINGUNO","TERRACERÍA","NINGUNO","0","KILÓMETRO 2+500",,,"0",,"EJIDO","EJIDO HERIBERTO JARA",,,,"21611","02","BAJA CALIFORNIA","002","Mexicali","1121","Ejido Heriberto Jara Sección Coronita","3437","800","6865660440","ALFONSOMV@LIVE.COM.MX",,"Fijo","32.53916667","-115.52472222","JULIO 2010"
"6186040","LAS CIENEGAS, S. DE P.R. DE R.L.","LAS CIENEGAS, S. DE P.R. DE R.L.","212321","Minería de arena y grava para la construcción","51 a 100 personas","CALLE","NINGUNO","CALLE","NINGUNO","CALLE","NINGUNO","CALLE","NINGUNO","55",,,,"0",,"EJIDO","NUEVO URUAPAN",,,,"22960","02","BAJA CALIFORNIA","001","Ensenada","0046","Bahía de los Ángeles","7131","020","6161658821","PIEDRADEMAR@HOTMAIL.COM",,"Fijo","28.95529587","-113.55813909","DICIEMBRE 2014"
"6186043","LOS BARROSOS, S.P.R. DE R.L.","LOS BARROSOS, S.P.R. DE R.L.","212329","Minería de otras arcillas y de otros minerales refractarios","0 a 5 personas","CARRETERA","TRANSPENISULAR","CALLE","NINGUNO","CALLE","NINGUNO","CALLE","NINGUNO","58",,,,"0",,"PUEBLO","EL ROSARIO DE ARRIBA",,,,,"02","BAJA CALIFORNIA","001","Ensenada","0598","Nuevo Uruapan","7080","010",,,,"Fijo","30.07249746","-115.70786054","DICIEMBRE 2014"
"6186033","MATERIALES CALISOS Y RENTAS",,"212311","Minería de piedra caliza","11 a 30 personas","CARRETERA","CARRETERA TECATE MEXICALI","CALLE","MICROONDAS","CALLE","NINGUNO","CALLE","POSTERIOR","71","70.5",,,"0",,"PARAJE","POBLADO LA RUMOROSA",,,,"21510","02","BAJA CALIFORNIA","003","Tecate","0107","La Rumorosa","0726","447","6865750363","RAFAELTKT@YAHOO.COM",,"Fijo","32.52969041","-116.05469355","MARZO 2011"
"6802536","METALES EL ROSARIO","METALES EL ROSARIO S DE RL DE CV","212312","Minería de mármol","6 a 10 personas","CALLE","NINGUNO","CALLE","NINGUNO","CALLE","NINGUNO","CALLE","NINGUNO",,"SN",,,,,"EJIDO","EL MARMOL",,,,"22960","02","BAJA CALIFORNIA","001","Ensenada","1739","El Salinito","7150","800","016461732289","MRO0510@HOTMAIL.COM",,"Fijo","28.54854443","-113.87276828","NOVIEMBRE 2017"
"6809521","METALES EL ROSARIO","METALES EL ROSARIO S DE RL DE CV","212312","Minería de mármol","0 a 5 personas","CALLE","PASEO DE LA PLAYA","CALLE","PASEO DE LA PLAYA","CALLE","PASEO DE LOS SAUCES","CALLE","PASEO DE LOS FRESNOS","418",,,,,,"COLONIA","LOMA DORADA",,,,"22890","02","BAJA CALIFORNIA","001","Ensenada","0001","Ensenada","7998","039","016461732281","MRO0510@HOTMAIL.COM",,"Fijo","31.8254194","-116.60321867","NOVIEMBRE 2017"
"6188988","MINERA REAL DE ANGELES, S.A. DE C.V.","MINERA REAL DE ANGELES, S.A. DE C.V. (SAN FELIPE)","212221","Minería de oro","0 a 5 personas","PROLONGACIÓN","KM. 123 MEXICALI - SAN FELIPE",,,,,,,"123","123 .",,,"0",,"COLONIA","SIERRAS PINTAS",,,,"21850","02","BAJA CALIFORNIA","002","Mexicali","1670","San Felipe (Ejido Plan Nacional Agrario) [Compañía]","3738","800","6869047628","JDOMINGUEZE@MINERAFRISCO.COM.MX",,"Fijo","31.59229354","-115.07973204","DICIEMBRE 2014"
"6188987","MINERÍA DE ARENA Y GRAVA PARA LA CONSTRUCCIÓN","RINCON DE SANTA ROSA, S.P.R. DE R.L.","212321","Minería de arena y grava para la construcción","0 a 5 personas","CALLE","NINGUNO",,"NINGUNO","CALLE","NINGUNO",,"NINGUNO","0","KILÓMETRO 60",,,"0",,"COTO","NUEVO URUAPAN",,,,"22960","02","BAJA CALIFORNIA","001","Ensenada","0598","Nuevo Uruapan","7080","005","16161658766","MOREO-P@HOTMAIL.COM.ES",,"Fijo","30.0746933","-115.71044288","JULIO 2010"
"6186042","MINERÍA DE ARENA Y GRAVA PARA LA CONSTRUCCIÓN",,"212321","Minería de arena y grava para la construcción","0 a 5 personas","CARRETERA","TRANSPENINSULAR","CALLE","NINGUNO","CALLE","NINGUNO","CALLE","NINGUNO","27",,,,"0",,"EJIDO","EL SOCORRO",,,,"22960","02","BAJA CALIFORNIA","001","Ensenada","0720","El Socorrito","7076","002",,,,"Fijo","30.31924681","-115.82272231","DICIEMBRE 2014"
"6186051","MINERIA HESPERIA, S.A. DE C.V.","MINERIA HESPERIA, S.A. DE C.V.","213119","Otros servicios relacionados con la minería","0 a 5 personas","PRIVADA","20 DE NOVIEMBRE","CALLE","OCTAVA","CALLE","SÉPTIMA","CALLE","NINGUNO","567",,,,"2",,"COLONIA","ZONA CENTRO",,,,"22800","02","BAJA CALIFORNIA","001","Ensenada","0001","Ensenada","0647","052","6461782096","IVONNE.MALEY@PRODIGY.NET.MX",,"Fijo","31.87233488","-116.62912838","JULIO 2010"
"6188989","NAVIAL MINERIA","NAVIAL MINERIA, S.A. DE C.V.","212210","Minería de hierro","0 a 5 personas","CALLE","TENIENTE AZUETA","CALLE","NINGUNO","CALLE","TENIENTE AZUETA","CALLE","PASEO MIGUEL HIDALGO Y COSTILLA","130",,"EDIFICIO CAPITAN JOAQUIN PRIETO","2","213",,"COLONIA","RECINTO PORTUARIO",,,,"22800","02","BAJA CALIFORNIA","001","Ensenada","0001","Ensenada","0628","051","6461759640",,,"Fijo","31.86087102","-116.631098","JULIO 2010"
"6188993","OFICINA EJIDO CHAPALA","ASOCIACIÓN DE EJIDATARIOS EJ. CHAPALA","212321","Minería de arena y grava para la construcción","0 a 5 personas","CALLE","MIGUEL HIDALGO","AVENIDA","JUÁREZ","AVENIDA","LÁZARO CÁRDENAS","CALLE","VICENTE GUERRERO","0","SN",,,"0",,"COLONIA","FLORES MAGÓN",,,,"22930","02","BAJA CALIFORNIA","001","Ensenada","0133","Lázaro Cárdenas","7381","010",,,,"Fijo","30.5261383","-115.9455385","JULIO 2010"
"6186037","OPERADORA DE SAL, S.A. DE C.V.","OPERADORA DE SAL, S.A. DE C.V.","212391","Minería de sal","0 a 5 personas","CALLE","EUCARIO LEÓN","BOULEVARD","LOMBARDO TOLEDANO","CALLE","PÉREZ RÍOS","CALLE","ANGEL VASQUEZ","1039",,,,"0",,"FRACCIONAMIENTO","CUCAPAH INFONAVIT",,,,"21360","02","BAJA CALIFORNIA","002","Mexicali","0505","Salina Ometepec (NCPE Industrial Año de Juárez 1972)","3761","800","16861603117","JAMAS06@PRODIGY.NET.MX",,"Fijo","31.41138889","-114.97972222","DICIEMBRE 2014"
"6285374","PARQUE RECREATIVO EL MORRO","EXPORTADORA DE SAL SA DE CV","212391","Minería de sal","0 a 5 personas",,"NINGUNO",,"NINGUNO",,"NINGUNO",,"NINGUNO",,"SN",,,,,"COLONIA","PUNTA MORRO REDONDO",,,,"22990","02","BAJA CALIFORNIA","001","Ensenada","4444","El Morro","9922","081",,,,"Fijo","28.03278096","-115.18712279","JULIO 2010"
"6186053","PATSA","PÉTREOS Y AGREGADOS DE TIJUANA, S.A. DE C.V.","212321","Minería de arena y grava para la construcción","11 a 30 personas","ANDADOR","ANDADOR VECINAL",,"NINGUNO",,"NINGUNO",,"NINGUNO","19701",,,,"0","C","COLONIA","LA PRESA",,,,"22253","02","BAJA CALIFORNIA","004","Tijuana","1953","El Pescador","2166","800","6646450202","CONTADOR.GENERAL@PATSATIJUANA.COM","WWW.PATSATIJUANA.COM","Fijo","32.44055556","-116.89722222","DICIEMBRE 2014"
"6740609","PD RIGS","PD RIGS SAPI DE CV","213119","Otros servicios relacionados con la minería","11 a 30 personas","CARRETERA","ESTATAL 2 EJIDO MIGUEL HIDALGO",,"NINGUNO",,"NINGUNO",,"NINGUNO","1","KM 26 500",,,,,"EJIDO","MIGUEL HIDALGO",,,,"21724","02","BAJA CALIFORNIA","002","Mexicali","0195","Ejido Miguel Hidalgo","355A","800",,,,"Fijo","32.41932116","-115.23763294","OCTUBRE 2016"
"6186032","PÉTREOS DEL PACIFICO","PÉTREOS DEL PACIFICO, S.A. DE C.V.","212393","Minería de barita","31 a 50 personas","CALLE","TERCERA (FRESNOS)","DIAGONAL","ESMERALDA","BOULEVARD","NINGUNO",,,"2186",,,,"0","A","COLONIA","COLONIA CARLOS PACHECO",,,,"22890","02","BAJA CALIFORNIA","001","Ensenada","0001","Ensenada","0435","001","6461521178","MLARA@AMAYACURIEL.COM",,"Fijo","31.89356007","-116.60863542","JULIO 2010"
"6423473","PETREOS DEL PACIFICO, S.A. DE C.V.","PETREOS DEL PACIFICO, S.A. DE C.V.","212321","Minería de arena y grava para la construcción","0 a 5 personas","CALLE","NINGUNO",,"NINGUNO","BOULEVARD","LÁZARO CÁRDENAS",,"NINGUNO","2186",,,,,,"FRACCIONAMIENTO","PLAYA ENSENADA",,,,"22880","02","BAJA CALIFORNIA","001","Ensenada","0001","Ensenada","0632","001",,,,"Fijo","31.84597117","-116.61596851","JULIO 2010"
"6186036","PÉTREOS LA PURISIMA, S.A. DE C.V.","PÉTREOS LA PURISIMA, S.A. DE C.V.","212321","Minería de arena y grava para la construcción","6 a 10 personas","CALLE","PASEO DE LOS HÉROES",,"ESTADO 29",,,,"NINGUNO","21322",,,,"0",,"FRACCIONAMIENTO","CAMPESTRE MURUA",,,,"22520","02","BAJA CALIFORNIA","004","Tijuana","0001","Tijuana","0460","028","6646087474","EMPRESAS40@YAHOO.COM.MX",,"Fijo","32.51398144","-116.99081955","DICIEMBRE 2014"
"6186045","PRODUCTOS PETREOS, S.A. DE C.V.","PRODUCTOS PETREOS, S.A. DE C.V.","212321","Minería de arena y grava para la construcción","11 a 30 personas","CALLE","ESMERALDA","CALLE","NINGUNO","CALLE","NINGUNO",,"NINGUNO","0","SN",,,"0",,,"CAÑÓN DEL GALLO",,,,"22855","02","BAJA CALIFORNIA","001","Ensenada","0001","Ensenada","845A","032","6461768485","PETREOS.VALDES@HOTMAIL.COM",,"Fijo","31.84748454","-116.5612616","DICIEMBRE 2014"
"62018","RECURSOS DEL DESIERTO",,"213119","Otros servicios relacionados con la minería","0 a 5 personas","CARRETERA","TRANSPENINSULAR (REFORMA)","BOULEVARD","LAGO VICTORIA","BOULEVARD","DE LOS LAGOS","CALLE","LAGO DE XOCHIMILCO","727",,,,,,"FRACCIONAMIENTO","VALLE DORADO",,,,"22890","02","BAJA CALIFORNIA","001","Ensenada","0001","Ensenada","5968","021","6461721251","REDESA1@PRODIGY.NET.MX",,"Fijo","31.83025475","-116.60050505","JULIO 2010"
"6723439","RECURSOS DEL DESIERTO S.A.",,"213119","Otros servicios relacionados con la minería","0 a 5 personas","CARRETERA","TRANSPENINSULAR (REFORMA)","BOULEVARD","LAGO VICTORIA","BOULEVARD","DE LOS LAGOS","AVENIDA",,"727",,,,,,"OTRO (ESPECIFICAR)","VALLE DORADO",,"OTROS SERVICIOS RELACIONADOS CON LA MINERÃ¿A",,"22890","02","BAJA CALIFORNIA","001","Ensenada","0001","Ensenada","5968","021","6461761251",,,"Fijo","31.83240677","-116.6009283","ENERO 2016"
"6186044","S.P.R. DE R.L. LOS MS","S.P.R. DE R.L. LOS MS","212319","Minería de otras piedras dimensionadas","0 a 5 personas","CARRETERA","TRANSPENISULAR","CARRETERA","TRANSPENISULAR","CALLE","NINGUNO","CALLE","NINGUNO","58",,,,"0",,"PUEBLO","EL ROSARIO DE ARRIBA",,,,,"02","BAJA CALIFORNIA","001","Ensenada","0598","Nuevo Uruapan","7080","010",,,,"Fijo","30.07278777","-115.70736568","DICIEMBRE 2014"
"6186054","SALINAS DE CORTEZ, S. DE R.L. DE C.V.","SALINAS DE CORTEZ, S. DE R.L. DE C.V.","212391","Minería de sal","11 a 30 personas","CARRETERA","MEXICALI SAN FELIPE","TERRACERÍA","NINGUNO","TERRACERÍA","NINGUNO","TERRACERÍA","NINGUNO","140",,,,"0",,"EJIDO","EJ. INDUSTRIAL AÑO DE JUÁREZ",,,,"21850","02","BAJA CALIFORNIA","002","Mexicali","0505","Salina Ometepec (NCPE Industrial Año de Juárez 1972)","3761","800","6862011216","SALINASDECORTEZ@PRODIGY.NET.MX",,"Fijo","31.41138889","-114.97972222","DICIEMBRE 2014"
"6186050","SALINAS DE OMETEPEC",,"212391","Minería de sal","11 a 30 personas","TERRACERÍA","CARRETERA MEXICALI SAN FELIPE","TERRACERÍA","CARRETERA MEXICALI SAN FELIPE","CARRETERA","SAN FELIPE","TERRACERÍA","CARRETERA MEXICALI SAN FELIPE","0","K 142",,,"0",,"ZONA FEDERAL","EJIDO INDUSTRIAL AÑO DE JUÁREZ 1972",,,,"21370","02","BAJA CALIFORNIA","002","Mexicali","0505","Salina Ometepec (NCPE Industrial Año de Juárez 1972)","3761","800","6852347065","JORGE.MESTAS@SUAVISAL.COM",,"Fijo","31.41138889","-114.97972222","DICIEMBRE 2014"
"6186058","SALINERA SAN MARTIN, S.P.R. DE RL",,"212391","Minería de sal","0 a 5 personas","AVENIDA","INGENIERO LUIS ALCERREGA","CALLE","GENERAL PLUTARCO ELÍAS CALLES","CALLE","GENERAL ABELARDO L RODRIGUEZ","AVENIDA","GENERAL JOSE MARIA MORELOS","299",,,,"66",,"EJIDO","EJ. BAJA CALIFORNIA",,,,"22930","02","BAJA CALIFORNIA","001","Ensenada","0133","Lázaro Cárdenas","7273","027","6161653755",,,"Fijo","30.52657477","-115.93200587","JULIO 2010"
"6186046","SOCIEDAD DE PRODUCCIÓN RURAL AGREDANOS","SOCIEDAD DE PRODUCCIÓN RURAL AGREDANOS, S.P.R. DE R.L.","212321","Minería de arena y grava para la construcción","11 a 30 personas","CAMINO","NINGUNO","CALLE","NINGUNO","CALLE","NINGUNO","CALLE","NINGUNO","0","SN",,,"0",,"PUEBLO","EL ROSARIO DE ABAJO",,,,"22960","02","BAJA CALIFORNIA","001","Ensenada","1729","El Rosario de Abajo","7080","001","6161599399",,,"Fijo","30.04224008","-115.73799474","JULIO 2010"
"6808502","TRANSCONTINENTAL MINING S DE RL DE CV","TRANSCONTINENTAL MINING S DE RL DE CV","212210","Minería de hierro","6 a 10 personas","CALLE","TENIENTE AZUETA","CALLE","NINGUNO","BOULEVARD","TENIENTE AZUETA","CALLE","PASEO MIGUEL HIDALGO Y COSTILLA","130",,"CAPITAN JOAQUÍN PRIETO G.","1","105",,"OTRO (ESPECIFICAR)","RECINTO PORTUARIO",,,,"22800","02","BAJA CALIFORNIA","001","Ensenada","0001","Ensenada","0628","051","016461732029","TRANSCON1@OUTLOOK.COM",,"Fijo","31.86087868","-116.63109054","NOVIEMBRE 2017"
"6710507","TRANSCONTINENTAL MINING, S. DE R.L. DE C.V.","TRANSCONTINENTAL MINING, S. DE R.L. DE C.V.","212210","Minería de hierro","0 a 5 personas","CALLE","DE LAS ROSAS","CALLE","HIERRO","PRIVADA","NINGUNO","CALLE","NINGUNO","103",,,,"0",,"FRACCIONAMIENTO","JUAN DIEGO RESIDENCIAL",,,,"22785","02","BAJA CALIFORNIA","001","Ensenada","0001","Ensenada","1293","005","016461732029","TRANSCON1@OUTLOOK.COM",,"Fijo","31.81745905","-116.59129208","ENERO 2016"
"6699217","TRANSPACIFIC MINING GROUP, S. DE R.L. DE C.V.","TRANSPACIFIC MINING GROUP, S. DE R.L. DE C.V.","212399","Minería de otros minerales no metálicos","6 a 10 personas","CARRETERA","LIBRE ENSENADA A LA PAZ",,"NINGUNO","OTRA (ESPECIFICAR)","NINGUNO","OTRA (ESPECIFICAR)","NINGUNO","196",,,,"0",,"EJIDO","NVA.ODISEA(ZONA AGRI)E",,,,,"02","BAJA CALIFORNIA","001","Ensenada","1527","Ejido Nueva Odisea (El Pabellón)","7061","800",,,,"Fijo","30.38361111","-115.8558333","ENERO 2016"
"6765857","TRITURADOS VOLCANO","TRITURADOS VOLCANO SA DE CV","212321","Minería de arena y grava para la construcción","6 a 10 personas","CALLE","ABELARDO L. RODRÍGUEZ","AVENIDA","SONORA","AVENIDA","NUEVO LEÓN","CALLE","BAJA CALIFORNIA","201",,,,"0",,"COLONIA","PROGRESO",,,,,"02","BAJA CALIFORNIA","002","Mexicali","0260","Progreso","309A","001","016862342642",,,"Fijo","32.5784601","-115.5862286","OCTUBRE 2016"
"6188992","VENTA DE PIEDRA LAJA",,"213119","Otros servicios relacionados con la minería","0 a 5 personas","CARRETERA","TRANSPENINSULAR","CALLE","AZUCENAS","CALLE","CLAVELES","CALLE","DE LAS ROSAS","0","SN",,,"0",,"COLONIA","SANTA FE",,,,"22923","02","BAJA CALIFORNIA","001","Ensenada","0783","Santa Fe","1984","027",,,,"Fijo","30.68085947","-115.97920232","JULIO 2010"
"6189046","CIA. MINERA CAOPAS, S.A. DE C.V.","CIA. MINERA CAOPAS, S.A. DE C.V.","212392","Minería de piedra de yeso","0 a 5 personas","PROLONGACIÓN","KM. 0 TRANSPENINSULAR",,,,,,,"8910","8910 A.P. 7",,,"0",,"COLONIA","PUNTA STA. ROSALÍA",,,,"23920","03","BAJA CALIFORNIA SUR","002","Mulegé","1478","Caopas [Compañía Minera]","3249","800","8444151455","SANFER59@YAHOO.COM.MX",,"Fijo","27.43665679","-112.31558057","DICIEMBRE 2014"
"6722401","CIA. OCCIDENTAL MEXICANA, S.A. DE C.V.","CIA. OCCIDENTAL MEXICANA, S.A. DE C.V.","212392","Minería de piedra de yeso","0 a 5 personas","PRIVADA","DOMICILIO CONOCIDO",,,,,,,,". .",".",,,,"SECTOR","NINGUNO",,,,"23910","03","BAJA CALIFORNIA SUR","002","Mulegé","0077","Isla San Marcos","9017","009","(615)Y1522414","ALBERTO.MIRANDA@COMSAMEXICO.COM.MX",,"Fijo","27.18992","-112.08172374","ENERO 2016"
"6708673","COMPAÑIA MINERA MULEGE, S.A. DE C.V.","COMPAÑIA MINERA MULEGE, S.A. DE C.V.","213119","Otros servicios relacionados con la minería","0 a 5 personas",,"SHAKESPEARE",,"BICENTENARIO (CALZADA MELCHOR OCAMPO)","OTRA (ESPECIFICAR)","VÍCTOR HUGO","CALLE","DESCARTES","15",,"7",,"703",,"COLONIA","ANZURES",,,,,"03","BAJA CALIFORNIA SUR","002","Mulegé","0077","Isla San Marcos","9017","051","5552506836",,"WWW.GMMC.COM.MX","Fijo","27.1875894","-112.07788855","ENERO 2016"
"6710976","COMPAÑIA MINERA PITALLA, S.A. DE C.V.","COMPAÑIA MINERA PITALLA, S.A. DE C.V.","212221","Minería de oro","0 a 5 personas","AVENIDA","MULEGÉ",,"TODOS SANTOS","OTRA (ESPECIFICAR)","LUIS DONALDO COLOSIO","CALLE","PRIMERA","328",,,,,,"FRACCIONAMIENTO","BELLA VISTA",,,,"23050","03","BAJA CALIFORNIA SUR","003","La Paz","0001","La Paz","3814","012","6121214970",,,"Fijo","24.12438212","-110.30582125","ENERO 2016"
"6186075","COMPANIA OCCIDENTAL MEXICANA, S.A. DE C.V.","COMPAÑÍA OCCIDENTAL MEXICANA, S.A. DE C.V.","212392","Minería de piedra de yeso","101 a 250 personas",,"DOMICILIO NINGUNO ISLA SAN MARCOS BCS",,"ISLA SAN MARCOS",,"NINGUNO",,"NINGUNO","0","SN",,,"0",,,"ISLA SAN MARCOS",,,,"23910","03","BAJA CALIFORNIA SUR","002","Mulegé","0077","Isla San Marcos","9017","033","6151522414",,,"Fijo","27.19487937","-112.08517058","DICIEMBRE 2014"
"6186068","CONCRETOS Y TRITURADOS G.VIZCVARRA",,"212321","Minería de arena y grava para la construcción","0 a 5 personas","CALLE","GENERAL MANUEL MÁRQUEZ DE LEÓN","CALLE","NINGUNO","CALLE","NINGUNO",,"NINGUNO","0","SN",,,"0",,"RANCHO","LA CRIBA",,,,"23920","03","BAJA CALIFORNIA SUR","002","Mulegé","0097","Heroica Mulegé","2965","058","6151079665",,,"Fijo","26.88893374","-112.00468654","DICIEMBRE 2014"
"6186077","CONSTRUCTORA GUSA, S.A. DE C.V.","CONSTRUCTORA GUSA, S.A. DE C.V.","212321","Minería de arena y grava para la construcción","11 a 30 personas","CALLE","CALLE SAN JOSÉ DEL CABO",,,,,,,"0","SN",,,"0",,"RANCHERÍA","ARROYO CADUANO",,,,"23434","03","BAJA CALIFORNIA SUR","008","Los Cabos","0056","Caduaño","0591","018",,,,"Fijo","23.3321975","-109.77475061","JULIO 2010"
"6186073","CONSTRUCTORA ROJA","CONSTRUCTORA ROJA, S.A. DE C.V.","212321","Minería de arena y grava para la construcción","6 a 10 personas","CALLE","VELERO","CALLE","BALANDRA","CALLE","CANOA","CALLE","DE LA GALERA","0","SN",,,"0",,"COLONIA","EL CHAMIZAL",,,,"23434","03","BAJA CALIFORNIA SUR","008","Los Cabos","0001","San José del Cabo","084A","003","016241421856","CONSTRUCTORAROJA@HOTMAIL.COM",,"Fijo","23.05935624","-109.70769185","DICIEMBRE 2014"
"6186076","CORTE Y VENTA DE MATERIALES PÉTREOS RANCHO EL COYOTE",,"212321","Minería de arena y grava para la construcción","11 a 30 personas","CAMINO","CAMINO A EL COYOTE","CAMINO","RANCHO OASIS SAN JORGE","CAMINO","RANCHO LOS NARANJOS","CALLE","NINGUNO","0","KILÓMETRO 24",,,"0",,"PROLONGACIÓN","EL COYOTE",,,,,"03","BAJA CALIFORNIA SUR","003","La Paz","2784","Los Naranjos","2411","800","6121539160","SAULIVAN2@HOTMAIL.COM",,"Fijo","24.28858178","-110.25208063","MARZO 2011"
"6186062","DESARROLLOS ZAPAL, S.A. DE C.V.","DESARROLLOS ZAPAL, S.A. DE C.V.","212221","Minería de oro","11 a 30 personas","CALLE","VERACRUZ","CALLE","GÓMEZ FARÍAS","CALLE","HEROES DE INDEPENDENCIA","CALLE","VERACRUZ","760",,,,"0",,"COLONIA","PUEBLO NUEVO",,,,"23201","03","BAJA CALIFORNIA SUR","003","La Paz","0001","La Paz","302A","003","6121259005","GZAVALA@MPA-LAPAZ.COM",,"Fijo","24.14163442","-110.31828511","DICIEMBRE 2014"
"6708669","EXPLOTACION MINERA EL EXITO, S.A. DE C.V.","EXPLOTACION MINERA EL EXITO, S.A. DE C.V.","212221","Minería de oro","0 a 5 personas","BOULEVARD","VENUSTIANO CARRANZA","CALLE","NINGUNO","CALLE","LEONES","CALLE","NINGUNO","8910",,,,,,"COLONIA","JARDÍN",,,,,"03","BAJA CALIFORNIA SUR","003","La Paz","1916","El Rincón del Oro","2731","800",,,,"Fijo","23.75671036","-110.08372895","ENERO 2016"
"6289638","EXPORTADORA DE SAL SA DE CV","EXPORTADORA DE SAL SA DE CV","212391","Minería de sal","251 y más personas",,"NINGUNO",,"NINGUNO",,"NINGUNO",,"NINGUNO",,"SN",,,,,"COLONIA","CENTRO",,,,"23940","03","BAJA CALIFORNIA SUR","002","Mulegé","0066","Guerrero Negro","3554","010",,,,"Fijo","27.95471347","-114.05186456","JULIO 2010"
"6186063","GRUPO VARGAS LIMON S.A. DE C.V.","GRUPO VARGAS LIMON, S.A. DE C.V.","212321","Minería de arena y grava para la construcción","6 a 10 personas","CARRETERA","CARRETERA FEDERAL LIBRE 1 TRAMO SANTA ROSALIA SAN IGNACION KILÓMETRO 8","CALLE","NINGUNO","CALLE","NINGUNO","CALLE","NINGUNO","0","SN",,,"0",,"COLONIA","NINGUNO",,,,"23920","03","BAJA CALIFORNIA SUR","002","Mulegé","1502","Ninguno","3249","800","6151539051","GPO_VARGAS_LIMON@HOTMAIL.COM",,"Fijo","27.39416056","-112.30547633","DICIEMBRE 2014"
"6189019","MATERIALES Y TRITURADOS DE LORETO","MATERIALES Y TRITURADOS DE LORETO","212321","Minería de arena y grava para la construcción","0 a 5 personas",,"PINO SUAREZ",,,,,,,"70",,,,"0",,,"JARAL",,,,"23880","03","BAJA CALIFORNIA SUR","009","Loreto","0280","La Ladrillera","0033","800",,,,"Fijo","26.00631986","-111.38209202","DICIEMBRE 2014"
"6189004","MINERA Y METALURGICA DEL BOLEO S.A.P.I. DE C.V.","MINERA Y METALURGICA DEL BOLEO, S.A.P.I. DE C.V.","212231","Minería de cobre","251 y más personas","PROLONGACIÓN","KM 5.5 TRANSPENINSULAR",,,,,,,"0",". .",,,"0",,"SECTOR","AL NORTE DE SANTA ROSALÍA KM5.5",,,,"23920","03","BAJA CALIFORNIA SUR","002","Mulegé","1734","Minera el Boleo","3249","800","6151525200","HECTOR.ESPINO@MMBOLEO.COM","WWW.MMBOLEO.COM","Fijo","27.3787537","-112.29796124","DICIEMBRE 2014"
"6186064","MINERÍA DE ARENA Y GRAVA PARA LA CONSTRUCCIÓN",,"212321","Minería de arena y grava para la construcción","11 a 30 personas","CALLE","NINGUNO",,,,,,,"0","SN",,,"0",,,"1748",,,,"23920","03","BAJA CALIFORNIA SUR","002","Mulegé","1748","Ninguno [Triturados Gutiérrez]","3249","800","6151095998","TYTGUTIERREZ@HOTMAIL.COM",,"Fijo","27.38404487","-112.30435245","DICIEMBRE 2014"
"6186067","MINERÍA DE ARENA Y GRAVA PARA LA CONSTRUCCIÓN",,"212321","Minería de arena y grava para la construcción","6 a 10 personas","AVENIDA","PINO SUÁREZ","CALLE","PINO SUÁREZ","CALLE","NINGUNO","CALLE","NINGUNO","0","SN",,,"0",,"COLONIA","MAGISTERIAL",,,,"23938","03","BAJA CALIFORNIA SUR","002","Mulegé","0482","Villa Alberto Andrés Alvarado Arámburo","4073","006",,,,"Fijo","27.64334282","-113.36619973","DICIEMBRE 2014"
"6186066","MINERÍA DE ARENA Y GRAVA PARA LA CONSTRUCCIÓN",,"212321","Minería de arena y grava para la construcción","0 a 5 personas","CALLE","MARQUEZ DE LEON","CALLE","MÁRQUEZ DE LEPON","CALLE","NINGUNO","CALLE","NINGUNO","7",,,,"0",,"COLONIA","CENTRO",,,,"23950","03","BAJA CALIFORNIA SUR","002","Mulegé","0014","Bahía Asunción","315A","016","6151580505",,,"Fijo","27.14078261","-114.29519503","DICIEMBRE 2014"
"6186071","MINERÍA DE ARENA Y GRAVA PARA LA CONSTRUCCIÓN",,"212321","Minería de arena y grava para la construcción","0 a 5 personas","BOULEVARD","MARGARITA MAZA DE JUÁREZ","CALLE","NORMAL",,,,,"0","SN",,,"0","SN","COLONIA","JUAREZ",,,,"23070","03","BAJA CALIFORNIA SUR","003","La Paz","0001","La Paz","3176","012","1256432",,,"Fijo","24.13428774","-110.29194765","DICIEMBRE 2014"
"6186082","MINERÍA DE ARENA Y GRAVA PARA LA CONSTRUCCIÓN",,"212321","Minería de arena y grava para la construcción","6 a 10 personas","CALLE","TECOMAJAC",,,,,,,"0","SN",,,"0",,"COLONIA","EXPLORADORES",,,,"23880","03","BAJA CALIFORNIA SUR","009","Loreto","0001","Loreto","0283","002","6131043534",,,"Fijo","26.00727551","-111.36750123","JULIO 2010"
"6186069","MINERÍA DE ARENA Y GRAVA PARA LA CONSTRUCCIÓN",,"212321","Minería de arena y grava para la construcción","0 a 5 personas","CALLE","SEBASTIÁN RODRÍGUEZ ZERMEÑO","CALLE","SEBASTIÁN VIZCAINO","CALLE","PASEO MANUEL DE BASALDUA","CALLE","NINGUNO","0","SN",,,"0","SN","COLONIA","EXPLORADORES",,,,"23880","03","BAJA CALIFORNIA SUR","009","Loreto","0001","Loreto","0103","001",,,,"Fijo","26.00890163","-111.3627336","DICIEMBRE 2014"
"6186065","MINERÍA DE PIEDRA CALIZA",,"212321","Minería de arena y grava para la construcción","0 a 5 personas","CALLE","NINGUNO","CALLE","ROBERTO CARRILLO VALENCIA","CALLE","NINGUNO","CALLE","NINGUNO","48",,,,"0",,"COLONIA","INFONAVIT",,,,"23950","03","BAJA CALIFORNIA SUR","002","Mulegé","0015","Bahía Tortugas","3516","015","6151580346",,,"Fijo","27.69449682","-114.89874049","DICIEMBRE 2014"
"6189005","OFICINAS ADMINISTRATIVAS MINERA BOLEO","MINERA Y METALUGICA DEL BOLEO, S.A.P.I. DE C.V.","212231","Minería de cobre","31 a 50 personas","CALZADA","MARIANO ABASOLO","CALLE","SINALOA","CALLE","SONORA","CALLE","BELISARIO DOMINGUEZ","0","SN",,,"0",,"COLONIA","PUEBLO NUEVO",,,,"23060","03","BAJA CALIFORNIA SUR","003","La Paz","0001","La Paz","3710","019","6121236100",,,"Fijo","24.14929297","-110.32783307","JULIO 2010"
"6186079","PRODUCTORA DE MATERIALES DE BAJA CALIFORNIA SUR, S.A. DE C.V.","PRODUCTORA DE MATERIALES DE BAJA CALIFORNIA SUR, S.A. DE C.V.","212321","Minería de arena y grava para la construcción","11 a 30 personas","CALLE","NICOLÁS BRAVO","CALLE","LICENCIADO ADOLFO LÓPEZ MATEOS","CALLE","GENERAL MANUEL M. DIEGUEZ","CALLE","ANTONIO ROSALES","0","SN",,,"0",,"COLONIA","LOS OLIVOS",,,,"23040","03","BAJA CALIFORNIA SUR","003","La Paz","0001","La Paz","2017","025","6121223605",,,"Fijo","24.14350496","-110.29710061","JULIO 2010"
"6808241","RIOS Y MONTAÑAS","RIOS Y MONTAÑAS SA DE CV","212231","Minería de cobre","51 a 100 personas","CALLE","REFORMA","CALLE","GUILLERMO PRIETO","CALLE","AQUILES SERDÁN","CALLE","INDEPENDENCIA","520",,,,,,"COLONIA","CENTRO",,,,"23000","03","BAJA CALIFORNIA SUR","003","La Paz","0001","La Paz","2252","009","016121289551","RIO160310@GMAIL.COM",,"Fijo","24.15986825","-110.31287562","NOVIEMBRE 2017"
"6186081","ROCA FOSFORICA MEXICANA II, S.A. DE C.V.","GRUPO FERTINAL, S.A. DE C.V.","212394","Minería de roca fosfórica","251 y más personas","CALLE","NINGUNO","CALLE","NINGUNO","CALLE","NINGUNO","CALLE","NINGUNO","0","SN",,,"0","SN",,"LOCALIDAD SAN JUAN DE LA COSTA",,,,"23205","03","BAJA CALIFORNIA SUR","003","La Paz","0963","San Juan de la Costa","2375","800","6121509700","ASALOMON@FERTINAL.COM",,"Fijo","24.391057","-110.69209","JULIO 2010"
"6716692","SALINAS PUNTA ARENA",,"212391","Minería de sal","0 a 5 personas",,"SALINAS PUNTA ARENA","CALLE","NINGUNO","CALLE","NINGUNO","CALLE","NINGUNO",,"SN",,,,,"OTRO (ESPECIFICAR)","LOCALIDAD PUNTA ARENAS",,,,"23230","03","BAJA CALIFORNIA SUR","003","La Paz","1923","Salinas Punta Arena","2498","800","16121512529",,,"Fijo","24.05211773","-109.83544723","ENERO 2016"
"6186072","SALINERA SAN AVARISTO",,"212391","Minería de sal","0 a 5 personas",,"SAN EVARISTO",,,,,,,"0","SN",,,"0","SN","PUEBLO","SAN EVARSITO",,,,,"03","BAJA CALIFORNIA SUR","003","La Paz","0778","San Evaristo","2337","800",,,,"Fijo","24.90780595","-110.70878999","DICIEMBRE 2014"
"6186078","SCP DE MATERIALES PARA LA CONSTRUCCIÓN OJEDA HNOS, S.C. RL","SCP DE MATERIALES PARA LA CONSTRUCCIÓN OJEDA HNOS, S.C. R.L.","212321","Minería de arena y grava para la construcción","11 a 30 personas","CALLE","JUAN DOMÍNGUEZ COTA","CALLE","JESUS GARZA MENCHACA","CALLE","JUAN DOMINGEZ COTA",,,"699",,,,"0",,"COLONIA","PUEBLO NUEVO",,,,"23600","03","BAJA CALIFORNIA SUR","001","Comondú","0001","Ciudad Constitución","2898","018","6131323204","OJEDAS@PRODIGY.NET.MX",,"Fijo","25.03564832","-111.64060371","JULIO 2010"
"6189013","TRITURACIONES Y CONSTRUCCIONES DEL VALLE, S.A. DE C.V.","TRITURACIONES Y CONSTRUCCIONES DEL VALLE, S.A. DE C.V.","212321","Minería de arena y grava para la construcción","0 a 5 personas","CALLE","AQUILES SERDÁN","CALLE","NUEVA","CALLE","NORTE","CALLE","NINGUNO","4985",,,,"0",,"COLONIA","PUESTA DEL SOL",,,,"23090","03","BAJA CALIFORNIA SUR","003","La Paz","0001","La Paz","2233","055","1240778","TRICOVSA2@HOTMAIL.COM",,"Fijo","24.13240503","-110.33592865","JULIO 2010"
"6186074","TRITURADORA LOS FLORES",,"212321","Minería de arena y grava para la construcción","11 a 30 personas","CALLE","BAHIA LA PAZ","BOULEVARD","FORJADORES DE SUDCALIFORNIA","CALLEJÓN","UNO",,,"119",,,,"0",,"COLONIA","FOVISSTE",,,,"23080","03","BAJA CALIFORNIA SUR","003","La Paz","2530","Colonia 28 de Octubre (Kilómetro 6)","2568","800","016121111254","EFRAINFLORESINZUNZA@HOTMAIL.COM",,"Fijo","24.0983725","-110.26624211","DICIEMBRE 2014"
"6186070","UNIÓN DE TRANSPORTISTAS DE MATERIALES AMADOR",,"212321","Minería de arena y grava para la construcción","6 a 10 personas","CALLE","CALLEJÓN DE ACCESO","CALLE","LEGASPI",,,,,"0","2434",,,"0","SN","COLONIA","BENITO JUÁREZ",,,,"23050","03","BAJA CALIFORNIA SUR","003","La Paz","2269","Cañada la Leña","2411","800","6123485569","MAT_AMADOR@HOTMAIL.COM",,"Fijo","24.26748884","-110.23043964","DICIEMBRE 2014"
"6509460","ACT DE EXPLOTACION KU-ZAAP-MALOOB CIUDAD DEL CARMEN","PEMEX EXPLORACIÓN Y PRODUCCIÓN","211110","Extracción de petróleo y gas","251 y más personas",,"AVIACIÓN",,"JUÁREZ","OTRA (ESPECIFICAR)","AKAL","CALLE","C","0","SN","0",,"0","0","OTRO (ESPECIFICAR)","AVIACIÓN",,,,,"04","CAMPECHE","003","Carmen","0001","Ciudad del Carmen","251A","048",,,,"Fijo","18.64448828","-91.82000068","ENERO 2016"
"6509453","ACTIVO DE EXPLOR. PLAT.CONT. SUR CD.CARMEN, CAMP.","PEMEX EXPLORACIÓN Y PRODUCCIÓN","211110","Extracción de petróleo y gas","51 a 100 personas",,"33",,"JUÁREZ","OTRA (ESPECIFICAR)","50","CALLE","C","90",,"EDIFICIO ADMINISTRATIVO NO. 1 PONIENTE","1",,"0","COLONIA","BURÓCRATAS",,,,"24160","04","CAMPECHE","003","Carmen","0001","Ciudad del Carmen","251A","003",,,,"Fijo","18.64764535","-91.82485776","ENERO 2016"
"6509461","ACTIVO DE PRODUCCIÓN CANTAREELL","PEMEX EXPLORACIÓN Y PRODUCCIÓN","211110","Extracción de petróleo y gas","251 y más personas",,"25",,"25","OTRA (ESPECIFICAR)","36","CALLE","C","48","0","0","0","0","0","OTRO (ESPECIFICAR)","GUADALUPE",,,,,"04","CAMPECHE","003","Carmen","0001","Ciudad del Carmen","0072","006",,,,"Fijo","18.63770861","-91.82970005","ENERO 2016"
"6509454","ACTIVO INTEGRAL HOLOK-TEMOA, CD. DEL CARMEN, CAMP.","PEMEX EXPLORACIÓN Y PRODUCCIÓN","211110","Extracción de petróleo y gas","251 y más personas","BOULEVARD","JUAN CAMILO MOURIÑO","CALLE","A","CALLE","B","CALLE","C","0","SN",,,"0","0","OTRO (ESPECIFICAR)","NINGUNO",,,,,"04","CAMPECHE","003","Carmen","0001","Ciudad del Carmen","2384","036",,,,"Fijo","18.66204384","-91.8301452","ENERO 2016"
"6713222","BANCO DE ARENA EL GUAYO","BANCO DE ARENA EL GUAYO","212321","Minería de arena y grava para la construcción","0 a 5 personas",,"CARRETERA ES LA AGUADA SABANCUY","CALLE",,"CALLE",,,,,"KM 53",,,,,"PROLONGACIÓN","RANCHO EL GUAYO",,,,,"04","CAMPECHE","003","Carmen","3786","Ninguno [Cárcamo de Rebombeo]","1422","800",,,,"Fijo","18.93416756","-91.3122258","ENERO 2016"
"6186087","COMERCIALIZADORA PETROLERA DEL GOLFO, S.A. DE C.V.","COMERCIALIZADORA PETROLERA DEL GOLFO, S.A. DE C.V.","213119","Otros servicios relacionados con la minería","31 a 50 personas","CALLE","1 SUR","CALLE","1 SUR","CALLE","5 SUR","AVENIDA","4 ORIENTE","0","LOTE 1",,,"0",,"PARQUE INDUSTRIAL","LAGUNA AZUL",,,,"24140","04","CAMPECHE","003","Carmen","0001","Ciudad del Carmen","1210","015","9828231669","ADMINISTRACION.SEYBAPLAYA@COMERCIALIZADORAPG.COM.MX","WWW.COMERCIALIZADORAPG.COM.MX","Fijo","18.65485557","-91.84533377","JUNIO 2012"
"6509455","DIVISIÓN MARINA DE PERFORACION, CD. CARMEN, CAMP.","PEMEX EXPLORACIÓN Y PRODUCCIÓN","211110","Extracción de petróleo y gas","251 y más personas",,"33",,"JUÁREZ","OTRA (ESPECIFICAR)","50","CALLE","C","90","SN","EDIFICIO ADMINISTRATIVO 1 PONIENTE","2","0","0","OTRO (ESPECIFICAR)","BUROCRATAS",,,,"24160","04","CAMPECHE","003","Carmen","0001","Ciudad del Carmen","251A","003",,,,"Fijo","18.64764535","-91.82485776","ENERO 2016"
"6701695","EAST WEST UTILITIES MEXICO, S. DE R.L. DE C.V.","EAST WEST UTILITIES MEXICO, S. DE R.L. DE C.V.","212391","Minería de sal","0 a 5 personas","CARRETERA","FEDERAL CHAMPOTÓN CARMEN KILÓMETRO 120+550 MARGEN DERECHO",,"NINGUNO","OTRA (ESPECIFICAR)","NINGUNO","OTRA (ESPECIFICAR)","NINGUNO","0","SN",,,"0","SN","OTRO (ESPECIFICAR)","CENTRO TURISTICO AKBAAL","OTROS CONJUNTOS COMERCIALES","CAMPECHE PLAYA ESMERALDA RESORT","SN","24400","04","CAMPECHE","004","Champotón","2119","Campeche Playa Esmeralda Resort","1097","002",,"JLNUNO@TSGWATER.COM","WWW.TSGWATER.COM","Fijo","19.22219089","-90.85194626","ENERO 2016"
"6509269","ENLACE REGIONAL DE APOYO ADMINISTRATIVO CD. DEL CARMEN","PEMEX EXPLORACIÓN Y PRODUCCIÓN","211110","Extracción de petróleo y gas","6 a 10 personas","AVENIDA","JUÁREZ",,"AVIACIÓN","OTRA (ESPECIFICAR)","NINGUNO",,,,"SN",,"PLANTA ALTA",,,,"CIUDAD DEL CARMEN",,,,"24160","04","CAMPECHE","003","Carmen","0001","Ciudad del Carmen","251A","048",,,,"Fijo","18.64554164","-91.81886868","ENERO 2016"
"6290387","ENSCO","ENSCO DRILLING MÉXICO LLC","213111","Perforación de pozos petroleros y de gas","51 a 100 personas","AVENIDA","ORIENTE","AVENIDA","3 SUR","CALLE","2 SUR","AVENIDA","ADOLFO LÓPEZ MATEOS","16","SN",,,,,"COLONIA","PUERTO PESQUERO",,,,"24129","04","CAMPECHE","003","Carmen","0001","Ciudad del Carmen","1210","001",,,,"Fijo","18.65402832","-91.84246134","JULIO 2010"
"6186084","GLOBAL DRILLING FLUIDS DE MÉXICO","GLOBAL DRILLING FLUIDS DE MEXICO, S.A. DE C.V.","213111","Perforación de pozos petroleros y de gas","101 a 250 personas","AVENIDA","CENTRAL","AVENIDA","EJE 2 PONIENTE","AVENIDA","RIO DANUBIO","AVENIDA","5 SUR","0","LOTE 1 Y 2",,,"0",,"PUERTO","LAGUNA AZUL",,,,"24140","04","CAMPECHE","003","Carmen","0001","Ciudad del Carmen","1210","015","9383829036",,"WWW.WEATHERFORD.COM","Fijo","18.65227703","-91.84657413","JULIO 2010"
"6718606","GRUPO R PERFORACION, S.A. DE C.V.","GRUPO R PERFORACION, S.A. DE C.V.","213111","Perforación de pozos petroleros y de gas","101 a 250 personas","AVENIDA","CENTRAL","CALLE","1 SUR","OTRA (ESPECIFICAR)","NINGUNO","CALLE","2 PONIENTE","26",,,,"0",,"PUERTO","INDUSTRIAL PESQUERO LAGUNA AZUL","PARQUE INDUSTRIAL","PUERTO INDUSTRIAL PESQUERO","SN","24140","04","CAMPECHE","003","Carmen","0001","Ciudad del Carmen","1210","035","019383828613","VVALENCIA@GRUPOR-PERFORACION.COM.MX",,"Fijo","18.6501447","-91.84568993","ENERO 2016"
"6424874","HALLIBURTON","HALLIBURTON","213111","Perforación de pozos petroleros y de gas","0 a 5 personas","AVENIDA","CONCORDIA","CALLE","60","AVENIDA","PERIFÉRICA NORTE","AVENIDA","CONCORDIA","0","SN",,,,,"COLONIA","PETROLERA",,,,"24179","04","CAMPECHE","003","Carmen","0001","Ciudad del Carmen","251A","039",,,,"Fijo","18.64933139","-91.81476125","JULIO 2010"
"6424891","HALLIBURTON","HALLIBURTON","213111","Perforación de pozos petroleros y de gas","0 a 5 personas","CALLE","5 SUR",,,,,,"NINGUNO","0","SN",,,,,"COLONIA","PUERTO PESQUERO",,,,"24120","04","CAMPECHE","003","Carmen","0001","Ciudad del Carmen","1210","005",,,,"Fijo","18.64641741","-91.84623455","JULIO 2010"
"6805358","KANUTAM","KANUTAM S DE RL DE CV","213111","Perforación de pozos petroleros y de gas","51 a 100 personas","CALLE","CARRETERA FEDERAL 180 CARMEN PUERTO REAL KM 14.5","NINGUNO","NINGUNO","NINGUNO","NINGUNO","NINGUNO","NINGUNO",,"SN",,,,,"OTRO (ESPECIFICAR)","CASIMBA (FENIX)",,,,"24157","04","CAMPECHE","003","Carmen","0001","Ciudad del Carmen","3151","006","NO TIENE","ABEL.HERNANDEZ@KANUTAM.COM","WWW.KANUTAM.COM","Fijo","18.68185998","-91.72750084","NOVIEMBRE 2017"
"6186085","KCA DEUTAG OFFSHORE",,"213111","Perforación de pozos petroleros y de gas","51 a 100 personas","AVENIDA","CENTRAL","AVENIDA","1 PONIENTE","AVENIDA","CENTRAL","CALLE","HÉROES 21 DE ABRIL","1",,,,"0",,"PUERTO","LAGUNA AZUL","ZONA INDUSTRIAL","SIN NOMBRE",,"24129","04","CAMPECHE","003","Carmen","0001","Ciudad del Carmen","1210","039","9381120272","IRENE.ZAPATA@KCADEUTAG.COM","WWW.KCADEUTAG.COM","Fijo","18.65330229","-91.84729218","MARZO 2011"
"6186088","MATERIALES BLANCAS",,"212321","Minería de arena y grava para la construcción","0 a 5 personas","CALLE","NINGUNO","CALLE","NINGUNO","CARRETERA","CHAMPOTON-MERIDA","CALLE","NINGUNO","0","SN",,,"0",,"COLONIA","CHULBAC",,,,"24000","04","CAMPECHE","002","Campeche","0001","San Francisco de Campeche","1618","003",,,,"Fijo","19.79975906","-90.5458968","DICIEMBRE 2014"
"6721241","MATERIALES CARRILLO",,"212321","Minería de arena y grava para la construcción","0 a 5 personas","CALLE","22","CALLE","M. CRECENCIO","CALLE","NINGUNO","CALLE","CALLE 19","38",,,,,,"COLONIA","SAN ROMAN",,,,"24600","04","CAMPECHE","006","Hopelchén","0001","Hopelchén","1104","016","9968220202","MATERIALESCARRILLO2014@HOTMAIL.COM",,"Fijo","19.74463929","-89.84576266","ENERO 2016"
"6701883","MEXISHIP OCEAN CCC, S.A. DE C.V.","MEXISHIP OCEAN CCC, S.A. DE C.V.","213111","Perforación de pozos petroleros y de gas","0 a 5 personas","CALLE","43","CALLE","22","AVENIDA","ADOLFO LÓPEZ MATEOS","CALLE","45","71",,,,"0",,"COLONIA","CENTRO",,,,"24100","04","CAMPECHE","003","Carmen","0001","Ciudad del Carmen","0034","010","019383821811","ARMANDO@MEXISHIP.COM","WWW.MEXISHIP.COM","Fijo","18.64439715","-91.8381626","ENERO 2016"
"6509268","O.R.A. CD. CARMEN, CAMP.","PEMEX EXPLORACIÓN Y PRODUCCIÓN","211110","Extracción de petróleo y gas","6 a 10 personas","CALLE","NINGUNO",,"NOHOCH","OTRA (ESPECIFICAR)","NINGUNO",,,,"SN",,,,,"COLONIA","PEMEX II",,,,"24160","04","CAMPECHE","003","Carmen","0001","Ciudad del Carmen","251A","048",,,,"Fijo","18.64536319","-91.82021548","ENERO 2016"
"6424888","PERFORADORA OIMEXICO","PERFORADORA OIMEXICO","213111","Perforación de pozos petroleros y de gas","0 a 5 personas","CALLE","1 SUR","AVENIDA","CENTRAL","CALLE","2 PONIENTE",,"NINGUNO","0","SN",,,,,"COLONIA","PUERTO PESQUERO",,,,"24129","04","CAMPECHE","003","Carmen","0001","Ciudad del Carmen","1210","035",,,,"Fijo","18.65174668","-91.8482469","MARZO 2011"
"6757943","PERFORADORA ORO NEGRO S DE RL DE CV","PERFORADORA ORO NEGRO S DE RL DE CV","213111","Perforación de pozos petroleros y de gas","0 a 5 personas","CALLE","CARMEN PUERTO REAL","CALLE","CONTADORES","AVENIDA","SAN MIGUEL","CALLE","LAGUNA AZUL NORTE","28",,"TAKIN","PB",,,"FRACCIONAMIENTO","SAN MIGUEL","CENTROS Y PLAZAS COMERCIALES","TAKIN","28","24157","04","CAMPECHE","003","Carmen","0001","Ciudad del Carmen","3024","018",,,,"Fijo","18.6565709","-91.782059","OCTUBRE 2016"
"6742968","PERFORADORA ORO NEGRO S DE RL DE CV","PERFORADORA ORO NEGRO S DE RL DE CV","213111","Perforación de pozos petroleros y de gas","0 a 5 personas","CALLE","CARMEN PUERTO REAL","CALLE","CONTADORES","AVENIDA","SAN MIGUEL","CALLE","LAGUNA AZUL NORTE","28",,,,,,"FRACCIONAMIENTO","SAN MIGUEL",,,,"24157","04","CAMPECHE","003","Carmen","0001","Ciudad del Carmen","3024","018",,,,"Fijo","18.65656873","-91.78206553","OCTUBRE 2016"
"6738679","PICO MÉXICO","PICO MEXICO SERVICIOS PETROLEROS S DE RL DE CV","213111","Perforación de pozos petroleros y de gas","0 a 5 personas","CALLE","35-D",,"68",,"70","CALLE","35-B","84",,,,,,"COLONIA","SAN AGUSTÍN DEL PALMAR",,,,"24110","04","CAMPECHE","003","Carmen","0001","Ciudad del Carmen","109A","037",,,,"Fijo","18.65306802","-91.81871602","OCTUBRE 2016"
"6714618","QMAX","QMAX MEXICO, S.A. DE C.V.","213119","Otros servicios relacionados con la minería","101 a 250 personas","AVENIDA","JUSTO SIERRA","CALLE","60","AVENIDA","JUÁREZ","CALLE","31-B","1",,,,"0",,"FRACCIONAMIENTO","JUSTO SIERRA MENDEZ",,,,"24166","04","CAMPECHE","003","Carmen","0001","Ciudad del Carmen","2505","040","019383841627","ANA.ESPINOZA@QMAX.COM","WWW.QMAX.COM","Fijo","18.64907791","-91.82195213","ENERO 2016"
"203801","SERVICIOS PETROLEROS BBH SA DE CV","SERVICIOS PETROLEROS BBH SA DE CV","213111","Perforación de pozos petroleros y de gas","31 a 50 personas","CALLE","21 DE MARZO","CALLE","12 DE OCTUBRE","AVENIDA","LIBERTAD","CALLE","18 DE MARZO",,"SN",,,,,"HACIENDA","HÉROES DE NACOZARI",,,,"24158","04","CAMPECHE","003","Carmen","0001","Ciudad del Carmen","2967","010",,,,"Fijo","18.64780032","-91.77349778","JUNIO 2012"
"6742927","SERVICOS Y SUMINSITROS WEAVER DE MÉXICO SA DE CV","SERVICOS Y SUMINSITROS WEAVER DE MÉXICO SA DE CV","213119","Otros servicios relacionados con la minería","6 a 10 personas","CALLE","MACULIS","CALLE","CAOBA","AVENIDA","3 (LAS PALMAS)","CALLE","CHECHÉN",,"SN",,,,,"COLONIA","23 DE JULIO",,,,"24155","04","CAMPECHE","003","Carmen","0001","Ciudad del Carmen","2859","016",,,,"Fijo","18.64182402","-91.78788473","OCTUBRE 2016"
"6509456","SUBDIRECCION DE MANTENIMIENTO Y LOGISTICA","PEMEX EXPLORACIÓN Y PRODUCCIÓN","211110","Extracción de petróleo y gas","251 y más personas",,"60",,"AVIACIÓN","OTRA (ESPECIFICAR)","NINGUNO","CALLE","C","0","SN","EDIFICIO KIKAB","P.B.","0","0","COLONIA","COLONIA PETROLERA",,,,"24180","04","CAMPECHE","003","Carmen","0001","Ciudad del Carmen","251A","039",,,,"Fijo","18.64870244","-91.81512544","ENERO 2016"
"6509457","SUBDIRECCION DE PRODUCCION REGIÓN MARINA NORESTE","PEMEX EXPLORACIÓN Y PRODUCCIÓN","211110","Extracción de petróleo y gas","251 y más personas",,"AVIACIÓN",,"JUÁREZ","OTRA (ESPECIFICAR)","AKAL","CALLE","C","1","SN","EDIFICIO ADMINISTRATIVO NO. 2","P. B.","0","0","COLONIA","COLONIA PEMEX II",,,,"24180","04","CAMPECHE","003","Carmen","0001","Ciudad del Carmen","251A","048",,,,"Fijo","18.64448828","-91.82000068","ENERO 2016"
"6509458","SUBDIRECCION DE PRODUCCION REGIÓN MARINA SUROESTE","PEMEX EXPLORACIÓN Y PRODUCCIÓN","211110","Extracción de petróleo y gas","251 y más personas",,"33",,"JUÁREZ","OTRA (ESPECIFICAR)","50","CALLE","C","90","0","EDIFICIO ADMINISTRATIVO NO. 1 PONIENTE","3","0","0","OTRO (ESPECIFICAR)","BUROCRATAS",,,,"24160","04","CAMPECHE","003","Carmen","0001","Ciudad del Carmen","251A","003",,,,"Fijo","18.64764535","-91.82485776","ENERO 2016"
"6186086","TESCO CORPORATION","DRILLING INNOVATION DE MEXICO SA DE CV","213111","Perforación de pozos petroleros y de gas","101 a 250 personas","CALLE","VILLAHERMOSA A  REFORMA","CALLE","NINGUNO","CALLE","NINGUNO","CALLE","NINGUNO","24",,,,"0",,"RANCHERÍA","RIO VIEJO PRIMERA SECCION",,,,,"04","CAMPECHE","003","Carmen","0001","Ciudad del Carmen","2505","016","9931879443","CARLOS_RODRIGUEZ@TESCOCORP.COM","WWW.TESCOCORP.COM","Fijo","18.65019877","-91.82243405","MARZO 2011"
"6508612","TRITURADORA ALFA Y OMEGA",,"212321","Minería de arena y grava para la construcción","6 a 10 personas","CALLE","LOCALIDAD 800","CALLE",,"AVENIDA",,,,,"SN",,,,,,"ALFA Y OMEGA",,,,,"04","CAMPECHE","004","Champotón","2412","Alfa y Omega [Trituradora]","1059","800",,,,"Fijo","19.60305422","-90.5452793","ENERO 2016"
"6186093","TRITURADORA CUCSA","CONSTRUCTORES UNIDOS DE CAMPECHE, S.A. DE C.V.","212321","Minería de arena y grava para la construcción","6 a 10 personas","AVENIDA","AVIACIÓN","CALLE","DE LA 105-E","CALLE","4 CAMINOS","CALLE","NINGUNO","84",,,,"0",,"COLONIA","HUANAL",,,,"24070","04","CAMPECHE","002","Campeche","0001","San Francisco de Campeche","1336","009","8151644","CUCSACONTA@HOTMAIL.COM",,"Fijo","19.83528374","-90.51012235","JULIO 2010"
"6186089","TRITURADORA GIL",,"212321","Minería de arena y grava para la construcción","11 a 30 personas","CARRETERA","CHAMPOTON-MERIDA","CARRETERA","AUTOPISTA CAMPECHE-CHAMPOTON",,,,,"0","SN",,,"0",,"EJIDO","LAZARO CARDENAS",,,,"24510","04","CAMPECHE","002","Campeche","0299","Hermanos Gil [Trituradora]","0770","800","9818294566",,,"Fijo","19.79722222","-90.55138889","JULIO 2010"
"6186090","TRITURADOS EL CAPRICHO",,"212321","Minería de arena y grava para la construcción","11 a 30 personas","CARRETERA","KILÓMETRO 10 MAS 200",,"NINGUNO",,"NINGUNO",,"NINGUNO","0","SN",,,"0",,"SECTOR","NINGUNO",,,,"24350","04","CAMPECHE","009","Escárcega","0905","El Capricho [Trituradora]","0235","800","9828240169",,,"Fijo","18.70111111","-90.7375","JULIO 2010"
"6186091","TRITURADOS LA GUADALUPANA",,"212321","Minería de arena y grava para la construcción","6 a 10 personas","CARRETERA","CARRETERA CHAMPOTON-MERIDA","CARRETERA","AUTOPISTA CAMPECHE-CHAMPOTON",,,,,"0","SN",,,"0",,"EJIDO","LAZARO CARDENAS",,,,"24510","04","CAMPECHE","002","Campeche","0298","La Guadalupana [Trituradora]","0770","800","9811208026",,,"Fijo","19.79722222","-90.53944444","JULIO 2010"
"6186092","TRITURADOS Y CONSTRUCCIONES MOYCRUZ","TRITURADOS Y CONSTRUCCIONES MOYCRUZ, S.A. DE C.V.","212321","Minería de arena y grava para la construcción","11 a 30 personas","CARRETERA","CARRETERA ESCARCEGA CHAMPOTÓN KILÓMETRO 23.5",,"NINGUNO","CARRETERA","ENTRONQUE SAN JOSÉ",,"NINGUNO","0","SN",,,"0",,"PUEBLO","CHAMPOTÓN",,,,"24350","04","CAMPECHE","009","Escárcega","1058","Moycruz [Triturados]","0593","800","019828241574","ASOMOYCRUZ@HOTMAIL.COM",,"Fijo","18.81861111","-90.75027778","JULIO 2010"
"6509459","UNIDAD OPERATIVA DE PERFORACION CANTARELL,CD CARME","PEMEX EXPLORACIÓN Y PRODUCCIÓN","211110","Extracción de petróleo y gas","251 y más personas",,"28",,"19","OTRA (ESPECIFICAR)","17","CALLE","C","31","A",,"0",,"0","COLONIA","GUANAL",,,,"24130","04","CAMPECHE","003","Carmen","0001","Ciudad del Carmen","0091","002",,,,"Fijo","18.6332647","-91.83066568","ENERO 2016"
"6806803","WEATHERFORD","WEATHERFORD DE MEXICO S DE RL DE CV","211110","Extracción de petróleo y gas","0 a 5 personas","CALLE","26","CALLE","35","CALLE","37","CALLE","24","4",,,,,,"BARRIO","PUERO PESQUERO",,,,"24140","04","CAMPECHE","003","Carmen","0001","Ciudad del Carmen","2469","021","NO TIENE",,,"Fijo","18.6400577","-91.83585743","NOVIEMBRE 2017"
"6760732","AGREGADOS LAGUNA","AGREGADOS LAGUNA SA DE CV","212321","Minería de arena y grava para la construcción","6 a 10 personas","CARRETERA","NVO VIZCAYA- MATAMOROS- LA UNION.",,"NINGUNO",,"NINGUNO",,"NINGUNO",,"SN",,,,,"CUARTEL","VICENTE GUERRERO POB M",,,,"27443","05","COAHUILA DE ZARAGOZA","017","Matamoros","0054","Vicente Guerrero","0087","800",,,,"Fijo","25.6133218","-103.19607227","OCTUBRE 2016"
"6299993","ALTOS HORNOS DE MEXICO SAB DE CV","ALTOS HORNOS DE MEXICO SAB DE CV","212210","Minería de hierro","251 y más personas","CALLE","PROLONGACIÓN BENITO JUÁREZ","CALLE","CONSTITUCIÓN","BOULEVARD","HAROLD R. PAPE","CARRETERA","A CANDELA",,"SN",,,,,"COLONIA","LA LOMA",,,,"25770","05","COAHUILA DE ZARAGOZA","018","Monclova","0001","Monclova","0173","001",,,,"Fijo","26.88470469","-101.41749036","JUNIO 2012"
"6186249","ARANZAZÚ HOLDING, S.A. DE C.V.","ARANZAZÚ HOLDING, S.A. DE C.V.","212231","Minería de cobre","101 a 250 personas","CALLE","ANTIGUO CAMINO A MONTERREY","CALLE","ANTIGUO CAMINO A MONTERREY","PERIFÉRICO","LUIS ECHEVERRÍA","PRIVADA","ALHÓNDIGA DE GRANADITAS","1560",,"TORRE SALTILLO","PISO 8","0",,"FRACCIONAMIENTO","PRIV.LOS ADOBES",,,,"25000","05","COAHUILA DE ZARAGOZA","030","Saltillo","0001","Saltillo","2193","003","8441111777",,"WWW.AURAMINERALS.COM","Fijo","25.44042621","-100.97577489","DICIEMBRE 2014"
"6189042","ARCILLAS INTERNACIONALES, S.A. DE C.V.","ARCILLAS INTERNACIONALES, S.A. DE C.V.","212329","Minería de otras arcillas y de otros minerales refractarios","0 a 5 personas","CALLE","ANTIGUA CARRETERA A SAN PEDRO","CALLE","GENERAL CEPEDA","CALLE","SATURNO","CALLE","CIRCUITO SATÉLITE","232",,,,"0",,"COLONIA","IGNACIO ALLENDE",,,,"27160","05","COAHUILA DE ZARAGOZA","035","Torreón","0001","Torreón","3323","001","8717317526",,,"Fijo","25.563721","-103.397205","MARZO 2011"
"6186309","ASOCIACIÓN NACIONAL DE PEQUEÑOS Y MEDIANOS PRODUCTORES DE FLUORITA, A.C.","ASOCIACIÓN NACIONAL DE PEQUE+ÆOS Y MEDIANOS PRODUCTORES DE FLUORITA, A.C.","212395","Minería de fluorita","0 a 5 personas","CALLE","MORELOS","CALLE","GENERAL TRINIDAD RODRÍGUEZ","CALLE","GENERAL CRUZ MALTOS",,,"219",,,,"0",,"COLONIA","CENTRO",,,,"26340","05","COAHUILA DE ZARAGOZA","020","Múzquiz","0001","Ciudad Melchor Múzquiz","1220","032","8646163131","ASOCFLUORITA@HOTMAIL.COM",,"Fijo","27.87683312","-101.51199383","JULIO 2010"
"6758540","BARITA DE SANTA ROSA SA DE CV","BARITA DE SANTA ROSA SA DE CV","212393","Minería de barita","31 a 50 personas","CARRETERA","MÚZQUIZ ROSITA",,"NINGUNO",,"NINGUNO",,"NINGUNO",,"SN",,,,,"COLONIA","CABALLO BLANCO",,,,"26340","05","COAHUILA DE ZARAGOZA","020","Múzquiz","1047","Quinta Digo Yo","1894","800",,,,"Fijo","27.87394103","-101.49001262","OCTUBRE 2016"
"6186237","BARITA DE SANTA ROSA, S.A. DE C.V.","BARITA DE SANTA ROSA, S.A. DE C.V.","212393","Minería de barita","51 a 100 personas","CARRETERA","KILÓMETRO 3 MÚZQUIZ - ROSITA",,,,,,,"1",,,,"0",,"COLONIA","CENTRO","HOTEL","FIESTA MEXICANA",,"26340","05","COAHUILA DE ZARAGOZA","020","Múzquiz","0814","Abundio Nieto","1907","800","8646161714","INGREQUENES90@HOTMAIL.COM",,"Fijo","27.90914413","-101.35954143","DICIEMBRE 2014"
"6186281","CAÂ¥ON DEL INDIO","CONSTRUCTORA SAMSARA LAGUNERA, S.A. DE C.V.","212321","Minería de arena y grava para la construcción","11 a 30 personas","CALLE","OAXACA","AVENIDA","TECNOLÓGICO","CALLE","NINGUNO",,,"1368","SN",,,"0",,"COLONIA","AVENDIDA TECNOLÓGICO",,,,"27000","05","COAHUILA DE ZARAGOZA","035","Torreón","0001","Torreón","1948","005","8717131600",,,"Fijo","25.49253468","-103.41079538","JULIO 2010"
"6186225","CALERA DE FELIX",,"212311","Minería de piedra caliza","0 a 5 personas","CALLE","NINGUNO","CALLE","NINGUNO","CALLE","NINGUNO","CALLE","NINGUNO","331",,,,"0",,"COLONIA","BARRIO COCEDORES",,,,"26950","05","COAHUILA DE ZARAGOZA","028","Sabinas","0001","Sabinas","106A","003",,,,"Fijo","27.89739545","-101.15187511","JULIO 2010"
"6186230","CALERA DE JUAN",,"212311","Minería de piedra caliza","0 a 5 personas","CALLE","BENITO JUÁREZ","CALLE","NINGUNO","CALLE","NINGUNO",,,"0","SN",,,"0",,"COLONIA","MIRADOR",,,,"26950","05","COAHUILA DE ZARAGOZA","028","Sabinas","0001","Sabinas","106A","003",,,,"Fijo","27.90042344","-101.15048023","JULIO 2010"
"6186227","CALERA DE LALO",,"212311","Minería de piedra caliza","0 a 5 personas","CALLE","NINGUNO","CALLE","NINGUNO","CALLE","NINGUNO","CALLE","NINGUNO","945",,,,"0",,"COLONIA","MIRADOR",,,,"26950","05","COAHUILA DE ZARAGOZA","028","Sabinas","0001","Sabinas","106A","003","861617471",,,"Fijo","27.89736731","-101.15306622","JULIO 2010"
"6186228","CALERA DE TOÑO",,"212311","Minería de piedra caliza","0 a 5 personas","CALLE","NINGUNO","CALLE","NINGUNO","CALLE","NINGUNO",,,"0","SN",,,"0",,"COLONIA","MIRADOR",,,,"26950","05","COAHUILA DE ZARAGOZA","028","Sabinas","0001","Sabinas","106A","003",,,,"Fijo","27.89738262","-101.15256075","JULIO 2010"
"6186226","CALERA DON BENITO",,"212311","Minería de piedra caliza","0 a 5 personas","CALLE","NINGUNO","CALLE","NINGUNO","CALLE","NINGUNO",,,"0","SN",,,"0",,"BARRIO","4 COCEDORES",,,,"26950","05","COAHUILA DE ZARAGOZA","028","Sabinas","0001","Sabinas","106A","003",,,,"Fijo","27.89738554","-101.15246427","JULIO 2010"
"6186318","CALIZA DE CASTAÑOS, S.A. DE C.V.","CALIZA DE CASTAÑOS, S.A. DE C.V.","212321","Minería de arena y grava para la construcción","6 a 10 personas","CALLE","CUAUHTÉMOC","CALLE","MANUEL ACUÑA","CALLE","ARAGON","CALLE","2 DE ABRIL","1128",,,,"0",,"COLONIA","EL PUEBLO",,,,"25730","05","COAHUILA DE ZARAGOZA","018","Monclova","0001","Monclova","0027","003","8666331095","MOLINOSMONTEVIEJO@HOTMAIL.COM",,"Fijo","26.91911688","-101.41759088","DICIEMBRE 2014"
"6189068","CARBON MEXICANO, S.A. DE C.V. (OFICINAS ADMINISTRATIVAS)","CARBON MEXICANO, S.A. DE C.V. (OFICINAS ADMINISTRATIVAS)","212110","Minería de carbón mineral","0 a 5 personas","BOULEVARD","BOULEVARD VENUSTIANO CARRANZA","CALLE","NINGUNO","CALLE","NINGUNO","CALLE","NINGUNO","8910",,,,"0",,"COLONIA","JARDIN",,,,"25070","05","COAHUILA DE ZARAGOZA","030","Saltillo","0001","Saltillo","1335","011","8444151455",,,"Fijo","25.4577","-100.984129","JULIO 2010"
"6189072","CARBONIFERA ARMA, S.A. DE C.V.",,"212110","Minería de carbón mineral","0 a 5 personas","CALLE","CUAHUTEMOC","CALLE","1 DE MAYO","CALLE","5 DE MAYO","CALLE","GILLERMO CORONA","258",,,,"0",,"COLONIA","ISMAEL RODRIGUEZ",,,,"26779","05","COAHUILA DE ZARAGOZA","028","Sabinas","0001","Sabinas","1144","010","8616126128",,,"Fijo","27.855968","-101.112939","JULIO 2010"
"6705141","CARBONIFERA DE LUNA, S.A. DE C.V.","CARBONIFERA DE LUNA, S.A. DE C.V.","212110","Minería de carbón mineral","0 a 5 personas","CALLE","ALTAMIRANO","CALLE","AMADOR CHAPA","AVENIDA","EPIFANIO RAMOS","PRIVADA","PRIVADA AMADOR CHAPA","421",,,,,,"COLONIA","CENTENARIO",,,,"26750","05","COAHUILA DE ZARAGOZA","028","Sabinas","0001","Sabinas","0447","030","8616123427",,,"Fijo","27.85431582","-101.12091339","ENERO 2016"
"6186290","CARBONIFERA DE LUNA, S.A. DECV","CARBONIFERA DE LUNA, S.A. DE C.V.","212110","Minería de carbón mineral","11 a 30 personas","CALLE","IGNACIO MANUEL ALTAMIRANO","CALLE","AMADOR CHAPA","AVENIDA","EPIFANIO RAMOS","PRIVADA","AMADOR CHAPA","421",,,,"0",,"COLONIA","CENTENARIO",,,,"26750","05","COAHUILA DE ZARAGOZA","028","Sabinas","0001","Sabinas","0447","030","8616123427",,,"Fijo","27.85375767","-101.12043471","JULIO 2010"
"6186286","CARBONIFERA DE SAN PATRICIO","CARBONIFERA DE SAN PATRICIO, S.A. DE C.V.","212110","Minería de carbón mineral","6 a 10 personas","AVENIDA","PASEO DE LOS LEONES","BRECHA","AURA -PIRINROS","BRECHA","AURA -PIRINEOS","CAMINO","AURA - PIRINROS","0","KILÓMETRO 0+900",,,"0",,"EJIDO","SAN JOSE DE AURA",,,,"25430","05","COAHUILA DE ZARAGOZA","028","Sabinas","0001","Sabinas","0396","040","6131411",,,"Fijo","27.86496792","-101.12946463","JULIO 2010"
"6693876","CARBONIFERA DE SAN PATRICIO","CARBONIFERA DE SAN PATRICIO, S.A. DE C.V.","212110","Minería de carbón mineral","11 a 30 personas","VIADUCTO","DOMICILIO CONOCIDO EN LOCALIDAD LA MOTA","BRECHA","AURA -PIRINROS","BRECHA","AURA -PIRINEOS","CAMINO","AURA - PIRINROS",,"SN",,,,,"EJIDO","SAN JOSE DE AURA",,,,"25430","05","COAHUILA DE ZARAGOZA","028","Sabinas","0001","Sabinas","0396","040","6131411",,,"Fijo","27.86501266","-101.12950476","ENERO 2016"
"6710943","CARBONIFERA DE SAN PATRICIO, S.A. DE C.V.","CARBONIFERA DE SAN PATRICIO, S.A. DE C.V.","212110","Minería de carbón mineral","0 a 5 personas","VIADUCTO","AURA - PIRINEOS",,,,,,,,". .",".",,,,"SECTOR","SAN JOSE DE AURA",,,,"25430","05","COAHUILA DE ZARAGOZA","026","Progreso","0076","La Joya","0368","800","8616130638","ERNESTO.CABRAL@EXT.CEMEX.COM",,"Fijo","27.58215336","-101.33701608","ENERO 2016"
"6186276","CARBONIFERA LA ESPERANZA, S.A. DE C.V.","CARBONIFERA LA ESPERANZA, S.A. DE C.V.","212110","Minería de carbón mineral","31 a 50 personas","CALLE","AVENIDA CUAUHTÉMOC","CALLE","JULIÁN GONZÁLEZ","CALLE","CUAHUTEMOC","AVENIDA","VICENTE GUERRERO","1019",,,,"0",,"COLONIA","COLONIA MANUEL LÓPEZ HUITRON",,,,,"05","COAHUILA DE ZARAGOZA","028","Sabinas","0001","Sabinas","031A","050","8616126387","CARBONIFERA@HOTMAIL.COM",,"Fijo","27.86312512","-101.11900573","JULIO 2010"
"6186293","CARBONIFERA LA LUZ, S.A. DE C.V.","CARBONIFERA LA LUZ, S.A. DE C.V.","212110","Minería de carbón mineral","0 a 5 personas","CALLE","MIGUEL RAMOS ARIZPE","AVENIDA","AVENIDA 5 DE MAYO","AVENIDA","INDEPENDENCIA","CALLE","SIMON BOLIVAR","157",,,,"0",,"COLONIA","CENTENARIO",,,,"26700","05","COAHUILA DE ZARAGOZA","028","Sabinas","0001","Sabinas","0485","006","8616125425","CARBONIFERALALUZ@HOTMAIL.COM.AR",,"Fijo","27.85403334","-101.11453561","JULIO 2010"
"6186233","CARBONIFERA MANANTIAL",,"212110","Minería de carbón mineral","11 a 30 personas","CALLE","IGNACIO ZARAGOZA","CALLE","RODRÍGUEZ TRIANA","CALLE","RAÚL LÓPEZ SÁNCHEZ","CALLE","FRANCISCO I MADERO","1940",,,,"0",,"COLONIA","DEL VALLE",,,,"26788","05","COAHUILA DE ZARAGOZA","028","Sabinas","0001","Sabinas","0409","014","8616131184",,,"Fijo","27.86254054","-101.13385","JULIO 2010"
"6693840","CELESTITA DE CUATRO CIENEGAS, S.A. DE R.L.",,"212399","Minería de otros minerales no metálicos","6 a 10 personas","CALLE","HIDALGO ORIENTE","CALLE","NIÑOS HÉROES","CALLE","VISENTE GUERRERO","CALLE","IGNACIO ALLENDE","404",,,,,,"COLONIA","ZONA CENTRO",,,,"27640","05","COAHUILA DE ZARAGOZA","007","Cuatro Ciénegas","0001","Cuatro Ciénegas de Carranza","0907","013","8696960307","FAUSTO@5961@PRODIGY.NET.MX",,"Fijo","26.98612935","-102.06357931","ENERO 2016"
"6186270","CELESTITA DE CUATRO CIENEGAS, S.A. DE RL",,"212399","Minería de otros minerales no metálicos","11 a 30 personas","BOULEVARD","MIGUEL HIDALGO","CALLE","NIÑOS HÉROES","CALLE","VISENTE GUERRERO","CALLE","IGNACIO ALLENDE","404",,,,"0",,"COLONIA","ZONA CENTRO",,,,"27640","05","COAHUILA DE ZARAGOZA","007","Cuatro Ciénegas","0001","Cuatro Ciénegas de Carranza","0907","013","8696960307","FAUSTO@5961@PRODIGY.NET.MX",,"Fijo","26.98701149","-102.0633543","JULIO 2010"
"6189041","COMERCIALIZADORA GRAMOL","COMERCIALIZADORA GRAMOL","212321","Minería de arena y grava para la construcción","0 a 5 personas","PERIFÉRICO","LUIS ECHEVERRÍA",,"NINGUNO","CALLE","SALTILLO","CALLE","REYNOSA","443",,,"PISO 2","0",,"COLONIA","REPÚBLICA",,,,"25280","05","COAHUILA DE ZARAGOZA","030","Saltillo","0001","Saltillo","0055","002","8441345112","OSCAR.TORRES@PROTEGECORP.COM.MX",,"Fijo","25.448117","-100.992332","MARZO 2011"
"6189052","COMERCIALIZADORA HEC-MAR",,"212110","Minería de carbón mineral","0 a 5 personas","AVENIDA","PASEO DE LOS LEONES","CALLE","GENERAL VICENTE GUERRERO","CALLE","IGNACIO MANUEL ALTAMIRANO","CALLE","IGNACIO MANUEL ALTAMIRANO","9",,,,"0",,"COLONIA","REYNERA",,,,"26730","05","COAHUILA DE ZARAGOZA","028","Sabinas","0001","Sabinas","0413","013","8616155250",,,"Fijo","27.8599518","-101.12591986","JULIO 2010"
"6186244","COMERCIALIZADORA HERCULES, S.A. DE C.V.",,"212110","Minería de carbón mineral","6 a 10 personas","CALLE","ALDAMA","AVENIDA","CARRANZA","AVENIDA","INSURGENTES","AVENIDA","MINERO","0","SN",,,"0",,"COLONIA","CENTRO",,,,"26370","05","COAHUILA DE ZARAGOZA","020","Múzquiz","0070","Minas de Barroterán","1343","029","8646110275",,,"Fijo","27.64791712","-101.28077428","DICIEMBRE 2014"
"6186224","COMPAÑÍA MINERA ALVARAM DE AGUJITA","COMPAÑÍA MINERA ALVARAM DE AGUJITA, S.A. DE C.V.","212110","Minería de carbón mineral","11 a 30 personas","AVENIDA","PASEO DE LOS LEONES",,"NINGUNO","CALLE","GÓMEZ FARÍAS","PRIVADA","DEL SOL","393",,,"PISO 1","0","D","COLONIA","REYNERA",,,,"26730","05","COAHUILA DE ZARAGOZA","028","Sabinas","0001","Sabinas","0396","043","018616134538","ALVA.RAM96@HOTMAIL.COM",,"Fijo","27.85941748","-101.12627785","JULIO 2013"
"6186294","COMPAÑÍA MINERA AMECA, S.A. DE C.V.","COMPAÑÍA MINERA AMECA, S.A. DE C.V.","212110","Minería de carbón mineral","11 a 30 personas","BOULEVARD","VENUSTIANO CARRANZA","CALLE","NINGUNO","CALLE","LEONES","CALLE","NINGUNO","8910",,,,"0",,"COLONIA","JARDÍN",,,,"25240","05","COAHUILA DE ZARAGOZA","030","Saltillo","0001","Saltillo","1335","042","8444151455",,,"Fijo","25.45642876","-100.98477478","MARZO 2011"
"6186295","COMPANIA MINERA CAOPAS, S.A. DE C.V.","COMPAÑÍA MINERA CAOPAS, S.A. DE C.V.","212392","Minería de piedra de yeso","11 a 30 personas","BOULEVARD","VENUSTIANO CARRANZA","CALLE","NINGUNO","CALLE","NINGUNO","CALLE","NINGUNO","8910",,,,"0",,"COLONIA","JARDIN",,,,"25240","05","COAHUILA DE ZARAGOZA","030","Saltillo","0001","Saltillo","1335","011","8444151455",,,"Fijo","25.45777902","-100.98408978","JULIO 2010"
"6186296","COMPAÑÍA MINERA DEL CONDEMBARO, S.A. DE C.V.","COMPAÑÍA MINERA DEL CONDEMBARO, S.A. DE C.V.","212393","Minería de barita","0 a 5 personas","BOULEVARD","VENUSTIANO CARRANZA","CALLE","NINGUNO","CALLE","LEONES",,,"8910",,,,"0",,"COLONIA","JARDÍN",,,,"25240","05","COAHUILA DE ZARAGOZA","030","Saltillo","0001","Saltillo","1335","042","018444151455",,,"Fijo","25.45642876","-100.98477478","MARZO 2011"
"6186297","COMPANIA MINERA HUAJICARI, S.A. DE C.V.","COMPAÑÍA MINERA HUAJICARI, S.A. DE C.V.","212291","Minería de manganeso","51 a 100 personas","BOULEVARD","VENUSTIANO CARRANZA","CALLE","NINGUNO","CALLE","NINGUNO","CALLE","NINGUNO","8910",,,,"0",,"COLONIA","JARDIN",,,,"25240","05","COAHUILA DE ZARAGOZA","030","Saltillo","0001","Saltillo","1335","011","8444151455",,,"Fijo","25.45777902","-100.98408978","JULIO 2010"
"6186298","COMPANIA MINERA LA PARRENA, S.A. DE C.V.","COMPAÑÍA MINERA LA PARRENA, S.A. DE C.V.","212231","Minería de cobre","251 y más personas","CALLE","TURÍN","CALLE","TURIN","CALLE","ALCALA","CALLE","CORTEZ","444",,,,"0",,"COLONIA","TORREON RESIDENCIAL",,,,"27268","05","COAHUILA DE ZARAGOZA","035","Torreón","0001","Torreón","0475","059","8717293476","PEDRO_VAZQUEZ@PENOLES.COM.MX","WWW.PENOLES.COM.MX","Fijo","25.52329675","-103.40147231","JULIO 2010"
"6804035","COMPAÑIA MINERA ZAPALINAME","COMPAÑIA MINERA ZAPALINAME SA DE CV","212110","Minería de carbón mineral","51 a 100 personas","CARRETERA","FEDERAL DE LA CONSTITUCIÓN 57 KM 123","CALLE","NINGUNO","BOULEVARD","BENITO JUAREZ","CALLE","NINGUNO",,"SN",,,,,"COLONIA","NINGUNO",,,,"26800","05","COAHUILA DE ZARAGOZA","032","San Juan de Sabinas","0014","Nueva Rosita","0064","129","018616145010","M.ZAMORAGZZ@HOTMAIL.COM",,"Fijo","27.9531819","-101.20267426","NOVIEMBRE 2017"
"6186284","CONCRETOS Y TRITURADOS DE SALTILLO","CONCRETOS Y TRITURADOS DE SALTILLO, S.A. DE C.V.","212321","Minería de arena y grava para la construcción","51 a 100 personas","AVENIDA","UNIVERSIDAD","CALLE","PROLONGACIÓN MARAVILLAS","CALLE","PROLONGACIÓN MIRAVALLE",,,"542",,,,"0",,"COLONIA","MAESTROS",,,,,"05","COAHUILA DE ZARAGOZA","030","Saltillo","0001","Saltillo","0055","017","8444388500",,,"Fijo","25.44283774","-100.99717675","JULIO 2010"
"6186252","CONSTRUCCIONES Y TRITURADOS DE COAHUILA S.A. DE C.V.","CONSTRUCCIONES Y TRITURADOS DE COAHUILA, S.A. DE C.V.","212321","Minería de arena y grava para la construcción","6 a 10 personas","CARRETERA","CARRETERA 57 KM 1259.3 TRAMO ALLENDE MORELOS","CARRETERA","CARRETERA A MORELOS","CARRETERA","CARRETERA A ALLENDE",,,"0","SN",,,"0",,"PUEBLO","ALLENDE",,,,"26530","05","COAHUILA DE ZARAGOZA","003","Allende","0145","Silicas Independientes de Coahuila [Molino]","0058","800","8626213253","CONSTRUCCIONESYTRITURADOS@HOTMAIL.COM",,"Fijo","28.3660816","-100.85868416","DICIEMBRE 2014"
"6186303","CORPORACIÓN INDUSTRIAL DE CALIZA, S.A. DE C.V. CICASA","CORPORACIÓN INDUSTRIAL DE CALIZA, S.A. DE C.V. CICASA","212311","Minería de piedra caliza","51 a 100 personas","CALLE","LOTE 2 PREDIO SAN LUCAS",,,,,,,"0","SN",,,"0",,,,,,,,"05","COAHUILA DE ZARAGOZA","027","Ramos Arizpe","0095","San Lucas","1255","800","8448660931",,,"Fijo","25.52392327","-100.86336899","JULIO 2010"
"6186212","CUARCEMEX, S.A. DE C.V.","CUARCEMEX, S.A. DE C.V.","212324","Minería de sílice","0 a 5 personas","CALLE","CALLE LOS ÁNGELES",,,,,,,"0","SN",,,"0",,"COLONIA","FRACCIONAMIENTO CALIFORNIA",,,,,"05","COAHUILA DE ZARAGOZA","004","Arteaga","0779","Fraccionamiento Ampliación California","0233","800","4319797",,,"Fijo","25.43642689","-100.89725394","DICIEMBRE 2014"
"6186268","DOLOMITA DE MONCLOVA, S.A. DE C.V.","DOLOMITA DE MOCLOVA, S.A. DE C.V.","212311","Minería de piedra caliza","51 a 100 personas","BRECHA","CARRETERA CASTAÑOS-MTY. KILÓMETRO 122","BRECHA","NINGUNO","BRECHA","NINGUNO","BRECHA","NINGUNO","1000","A",,,"0",,"EJIDO","RANCHO EL CONEJO, EJIDO LA JOYA",,,,"25770","05","COAHUILA DE ZARAGOZA","006","Castaños","0270","Joya [Mina]","0914","800","8666490900",,,"Fijo","26.39416667","-101.19194445","JULIO 2010"
"6186221","EL REGRESO MINERALES, S.A. DE C.V.","EL REGRESO MINERALES, S.A. DE C.V.","212222","Minería de plata","0 a 5 personas","CALLE","CARLOS SALAZAR","CALLE","SALAZAR","CALLE","CRISTÓBAL COLÓN","CALLE","CUAHUTEMOC","436",,,,"0",,"COLONIA","ZONA CENTRO",,,,"25000","05","COAHUILA DE ZARAGOZA","030","Saltillo","0001","Saltillo","0286","032","8444126952","ALEJANDROHERNANDEZBANDA@YAHOO.COM.MX",,"Fijo","25.42185894","-101.01053525","MARZO 2011"
"6427727","ENERGIA MINERAL","ENERGIA MINERAL","212110","Minería de carbón mineral","0 a 5 personas","PERIFÉRICO","LUIS ECHEVERRÍA",,"NINGUNO","CALLE","SALTILLO",,"NINGUNO","443","P","TORRELITE","9","9",,"COLONIA","REPUBLICA",,,,"25260","05","COAHUILA DE ZARAGOZA","030","Saltillo","0001","Saltillo","0055","002",,,,"Fijo","25.44829571","-100.99273658","JULIO 2010"
"6186269","ENERGIA MINERAL","ENERGIA MINERAL, S.A. DE C.V.","212110","Minería de carbón mineral","11 a 30 personas","CALLE","IGNACIO ZARAGOZA","CALLE","PRIMERO DE MAYO","CALLE","EPIFANIO RAMOS","CALLE","MELCHOR OCAMPO","0","SN",,,"0",,,"CENTRO",,,,"26730","05","COAHUILA DE ZARAGOZA","028","Sabinas","7209","Localidad económica","0790","800","8616121408","CCARREON@ENERGIAMINERAL.COM",,"Fijo","27.77901948","-101.081553","JULIO 2010"
"6508644","ENERGIA MINERAL, S.A. DE C.V.","ENERGIA MINERAL, S.A. DE C.V.","212110","Minería de carbón mineral","0 a 5 personas","CALLE","LICENCIADO MELCHOR OCAMPO","CALLE",,"CALLE",,,,,,,,,"SN",,,,,,"26730","05","COAHUILA DE ZARAGOZA","028","Sabinas","0001","Sabinas","0470","025",,,,"Fijo","27.85023185","-101.12487562","ENERO 2016"
"6717830","EXPLORACIONES MINERAS PARREÑA, S.A. DE C.V.","EXPLORACIONES MINERAS PARREÑA, S.A. DE C.V.","213119","Otros servicios relacionados con la minería","0 a 5 personas","CALZADA","MANUEL GÓMEZ MORÍN","CALLE","ALCALÁ","CALLE","TURÍN","OTRA (ESPECIFICAR)","CORTEZ","444",,,,,,"OTRO (ESPECIFICAR)","TORREON RESIDENCIAL",,,,"27268","05","COAHUILA DE ZARAGOZA","035","Torreón","0001","Torreón","0475","059",,,,"Fijo","25.52290762","-103.4013513","ENERO 2016"
"6189061","FABRICA DE PRODUCTOS PARA LA CONSTRUCCION FILLER, S.A. DE C.V.","PRODUCTOS FILLER, S.A. DE C.V.","212311","Minería de piedra caliza","0 a 5 personas","CALLE","BRITTINGHAM","CALLE",,"CALLE","DOMINGO VALDEZ LLANO","CALLE","JOAQUIN SERRANO","260",,,,"0",,,"CIUDAD INDUSTRIAL",,,,"27019","05","COAHUILA DE ZARAGOZA","035","Torreón","0001","Torreón","0761","016","8717505953",,,"Fijo","25.5896907","-103.3877018","JULIO 2010"
"6186305","FONDO DE GARANTIA A LA PEQUEÑA Y MEDIANA MINERIA DEL ESTADO DE COAHUILA","FONDO DE GARANTIA A LA PEQUEÑA Y MEDIANA MINERIA DEL ESTADO DE COAHUILA","212110","Minería de carbón mineral","11 a 30 personas","AVENIDA","PASEO DE LOS LEONES","CARRETERA","CARRETERA 57",,"LIBRAMIENTO NORTE",,"NINGUNO","1004","A",,,"0",,"COLONIA","PROGRESO PROLONGACIÓN",,,,"26813","05","COAHUILA DE ZARAGOZA","028","Sabinas","0001","Sabinas","0413","013","0186680171","FONDODEGARANTIA@HOTMAIL.COM",,"Fijo","27.85990004","-101.12592099","JULIO 2010"
"6186302","FOSILES MINERALES, S.A. DE C.V.","FOSILES MINERALES, S.A. DE C.V.","212110","Minería de carbón mineral","6 a 10 personas","AVENIDA","PASEO DE LOS LEONES","CALLE","PABLO RAMOS","CALLE","JESUS ACUÑA","CALLE","LAGUNA DE LOS PATOS","0","SN",,,"0",,"COLONIA","FUNDADORES",,,,"26740","05","COAHUILA DE ZARAGOZA","028","Sabinas","0001","Sabinas","0396","040",,,,"Fijo","27.86505458","-101.12954237","JULIO 2010"
"6186317","GRUPO CERON DEL PACIFICO, S.A. DE C.V.",,"212391","Minería de sal","0 a 5 personas","BRECHA","NINGUNO","CALLE","NINGUNO","CALLE","NINGUNO","CALLE","NINGUNO","0","SN",,,"0",,"EJIDO","SALINAS DEL REY SUR",,,,"27600","05","COAHUILA DE ZARAGOZA","034","Sierra Mojada","0018","Salina del Rey (Del Rey Sur)","1300","028","8717506760",,,"Fijo","26.99167406","-103.45025407","MARZO 2011"
"6189066","GRUPO FIRST MAJESTIC SILVER CORP.","MINERA LA ENCANTADA, S.A. DE C.V.","212222","Minería de plata","0 a 5 personas","CALLE","MIGUEL ACOSTA","CALLE","NINGUNO","CALLE","NINGUNO","CALLE","NINGUNO","0","KILÓMETRO 1+500",,,"0",,"COLONIA","CENTRO",,,,"26340","05","COAHUILA DE ZARAGOZA","020","Múzquiz","0001","Ciudad Melchor Múzquiz","220A","020","8646165537",,,"Fijo","27.873778","-101.497459","JULIO 2010"
"6186306","GRUPSA, S.A. DE C.V.","GRUPSA, S.A. DE C.V.","212110","Minería de carbón mineral","11 a 30 personas","CALLE","AVENIDA INDEPENDENCIA","CALLE","IGNACIO ZARAGOZA","CALLE","MELCHOR OCAMPO","CALLE","EMILIO CARRANZA","285","A",,,"0",,,"CENTRO",,,,"26700","05","COAHUILA DE ZARAGOZA","028","Sabinas","0001","Sabinas","049A","012","8616126745","ELOPEZMUNDO2@HOTMAIL.COM",,"Fijo","27.8477567","-101.12246587","DICIEMBRE 2014"
"6715337","GRUPSA, S.A. DE C.V.","GRUPSA, S.A. DE C.V.","212110","Minería de carbón mineral","0 a 5 personas","CALLE","AVENIDA INDEPENDENCIA","CALLE","IGNACIO ZARAGOZA","CALLE","LICENCIADO MELCHOR OCAMPO","OTRA (ESPECIFICAR)","EMILIO CARRANZA","285","A",,,,,"OTRO (ESPECIFICAR)","CENTRO",,,,"26700","05","COAHUILA DE ZARAGOZA","028","Sabinas","0001","Sabinas","049A","012","8616126745","ELOPEZMUNDO2@HOTMAIL.COM",,"Fijo","27.84775157","-101.1224656","ENERO 2016"
"6186239","INDUSTRIAL JAYNO, S.A. DE C.V.","INDUSTRIAL JAYNO, S.A. DE C.V.","212393","Minería de barita","6 a 10 personas","BOULEVARD","REVOLUCION",,,,,,,"91",,,,"0",,"COLONIA","TORREON",,,,"27980","05","COAHUILA DE ZARAGOZA","024","Parras","0001","Parras de la Fuente","1249","023","8717176938","IJAYNO@TERRA.COM.MX",,"Fijo","25.432979","-102.18655","DICIEMBRE 2014"
"6189051","INDUSTRIAL MINERA AMERICA, S.A. DE C.V.","INDUSTRIAL MINERA AMERICA, S.A. DE C.V.","212110","Minería de carbón mineral","0 a 5 personas","AVENIDA","PASEO DE LOS LEONES","CALLE","GENERAL VICENTE GUERRERO","CALLE","IGNACIO MANUEL ALTAMIRANO","CALLE","IGNACIO MANUEL ALTAMIRANO","3",,,,"0",,"COLONIA","REYNERA",,,,"26730","05","COAHUILA DE ZARAGOZA","028","Sabinas","0001","Sabinas","0413","013","8616124542",,,"Fijo","27.8594669","-101.12600774","JULIO 2010"
"6186246","LOGISTICA Y RECURSOS COMERCIALES, S.A. DE C.V.","LOGISTICA Y RECURSOS COMERCIALES SA DE CV","212110","Minería de carbón mineral","6 a 10 personas","CALLE","MIGUEL HIDALGO","CALLE","GÓMEZ FARÍAS","CALLE","LAMADRID","CALLE","JUAN ALDAMA","225",,,,"0",,"COLONIA","CENTRO",,,,"26700","05","COAHUILA DE ZARAGOZA","028","Sabinas","0001","Sabinas","0451","010","6125181","LORECO@TELMEXMAIL.COM",,"Fijo","27.85495954","-101.12407895","DICIEMBRE 2014"
"6189058","LONG MAINING CO, S.A. DE C.V.","LONG MAINING, S.A. DE C.V.","212110","Minería de carbón mineral","0 a 5 personas","CALLE","QUERÉTARO","CALLE","20 DE NOVIEMBRE","CALLE","PRIMERO DE MAYO","CALLE","SONORA","2072",,,,"0",,"COLONIA","INDEPENDENCIA",,,,"26830","05","COAHUILA DE ZARAGOZA","032","San Juan de Sabinas","0014","Nueva Rosita","0331","011","018616142988","OSACARLONG@PRODIGY.NET.MX",,"Fijo","27.94155598","-101.21640131","JULIO 2010"
"6186240","MAGNELEC, S.A. DE C.V.","MAGNELEC, S.A. DE C.V.","212398","Minería de minerales no metálicos para productos químicos","251 y más personas","PRIVADA","NINGUNO",,,,,,,"0","SN",,,"0","SN","COLONIA","LA ESMERALDA",,"METALURGICA","3200",,"05","COAHUILA DE ZARAGOZA","034","Sierra Mojada","0171","Las Minas","1207","800","8712367495","ADAN_GONZALEZ@PENOLES.COM.MX","WWW.PENOLES.COM.MX","Fijo","27.277151","-103.671518","JULIO 2010"
"6186248","MAPA TRANSPORTES","MAPA TRANSPORTES SA DE CV","212232","Minería de plomo y zinc","51 a 100 personas","CALLE","EMILIO CARRANZA","CALLE","NINGUNO","CALLE","NINGUNO","CALLE","NINGUNO","105",,,,"0",,,,,,,"27500","05","COAHUILA DE ZARAGOZA","023","Ocampo","0001","Ocampo","2396","003","8696950295",,,"Fijo","27.31102797","-102.39652389","DICIEMBRE 2014"
"6697466","MASTER DRILLING MÉXICO","MASTER DRILLING MEXICO, S.A. DE C.V.","213111","Perforación de pozos petroleros y de gas","101 a 250 personas","CALLE","ANTIGUA CARRETERA A SAN PEDRO","CARRETERA","UNIÓN-LA PARTIDA","OTRA (ESPECIFICAR)","NINGUNO","CALLE","PASEO DEL SOL","752","4",,,"0",,"COLONIA","ANA",,,,"27410","05","COAHUILA DE ZARAGOZA","035","Torreón","0001","Torreón","2274","001","018717928009","EDESANTOS@MASTERDRILLINGMEXICO.COM","WWW.MASTERDRILLING.COM","Fijo","25.60418203","-103.37878691","ENERO 2016"
"6189063","MATERIA PRIMAS DE LAMPAZOS, S. DE R.L. DE C.V.","MATERIA PRIMAS DE LAMPAZOS, S. DE R.L. DE C.V.","212324","Minería de sílice","0 a 5 personas","CARRETERA","CARRETERA FEDERAL 2 PIEDRAS NEGRAS LAREDO",,"NINGUNO",,"NINGUNO",,"NINGUNO","0","KILÓMETRO 87+500",,,"0",,"COLONIA","OBISPADO",,,,,"05","COAHUILA DE ZARAGOZA","013","Hidalgo","7201","Localidad económica","0020","800","8181512800","JPALOMO@JMP.COM.MX",,"Fijo","28.05805556","-100.08361111","MARZO 2011"
"6186279","MATERIALES TRITURADOS BALLESTEROS",,"212321","Minería de arena y grava para la construcción","11 a 30 personas","BOULEVARD","BOULEVARDREPUBLICA COMINO CXARRETERA ACUÑA","CALLE","MARÍA TERESA ENCISO","CALLE","DANIEL GONZÁLEZ GYERRERO",,"NINGUNO","509",,,,"0",,"COLONIA","DEL LAGO",,,,"26069","05","COAHUILA DE ZARAGOZA","025","Piedras Negras","7201","Localidad económica","0981","800","8787832616","TRITURADOSBALLESTEROS@HOTMAIL.COM",,"Fijo","28.71125145","-100.565112","JULIO 2010"
"6189074","MATERIALES Y TRITURADOS DE MONCLOVA, S.A. DE C.V.","MATERIALES Y TRITURADOS DE MONCLOVA, S.A. DE C.V.","212311","Minería de piedra caliza","0 a 5 personas","BOULEVARD","GUSTAVO GALAZ","CALLE","NINGUNO","CALLE","NINGUNO","CALLE","NINGUNO","181","KILÓMETRO 181+500",,,"0",,"SECTOR","NINGUNO",,,,"25870","05","COAHUILA DE ZARAGOZA","006","Castaños","0001","Castaños","0331","034","8666971970","MTMSA@PRODIGY.NET.MX",,"Fijo","26.80922479","-101.4198702","JULIO 2010"
"6187639","MATERIAS PRIMAS DE LAMPAZOS","MATERIAS PRIMAS DE LAMPAZOS, S. DE R.L.","212324","Minería de sílice","51 a 100 personas","CARRETERA","CARRETERA LAREDO - PIEDRAS NEGRAS","CARRETERA","CARRETERA A LAREDO PIEDRAS NEGRAS KM 87.5",,,,,"0","KILÓMETRO 87+500",,,"0",,"VILLA","VILLA HIDALGO",,,,"26670","05","COAHUILA DE ZARAGOZA","013","Hidalgo","0050","Canoítas","0020","800","018181512820","JPALOMO@GMP.COM.MX",,"Fijo","28.07222136","-100.04978107","DICIEMBRE 2014"
"6771330","MC DONALDS","ARCOS SERCAL INMOBILIARIA S DE RL DE CV","212324","Minería de sílice","0 a 5 personas","CALLE","GENERAL LÁZARO CÁRDENAS","CALLE","K","CALLE","L","AVENIDA","SEGUNDA",,"SN",,,"0","LOCAL 03","COLONIA","EDUARDO GUERRA","CENTRO COMERCIAL","3",,"27280","05","COAHUILA DE ZARAGOZA","035","Torreón","0001","Torreón","1685","028","018717311890",,,"Fijo","25.52183358","-103.4257391","OCTUBRE 2016"
"6189048","MICHSA MINERA DON CHILOS.A, DE C.V.",,"212110","Minería de carbón mineral","0 a 5 personas","CALLE","VERACRUZ","CALLE","MIGUEL ACOSTA","CALLE","CHIAPAS","CALLE","MIGUEL HIDALGO","0","SN",,,"0",,"COLONIA","INFONAVIT",,,,"26340","05","COAHUILA DE ZARAGOZA","020","Múzquiz","0001","Ciudad Melchor Múzquiz","1451","027",,,,"Fijo","27.87451681","-101.49863162","DICIEMBRE 2014"
"6742468","MIGAREST","MIGAREST SA DE CV","212110","Minería de carbón mineral","31 a 50 personas",,"57",,"4",,"3","CALLE","AVENIDA 2","260",,,,,,"AEROPUERTO","MEZQUITE",,,,"26790","05","COAHUILA DE ZARAGOZA","028","Sabinas","0001","Sabinas","0964","004",,,,"Fijo","27.82916993","-101.13331161","OCTUBRE 2016"
"6740223","MINA ARENAS Y GRAVAS DE MONTERREY","ARENAS Y GRAVAS DE MONTERREY S DE RL DE CV","212321","Minería de arena y grava para la construcción","11 a 30 personas","CARRETERA","MONCLOVA-CANDELA",,"NINGUNO",,"NINGUNO",,"NINGUNO","12",,,,,,"EJIDO","EL ORO",,,,"25847","05","COAHUILA DE ZARAGOZA","018","Monclova","0026","San José del Oro (San José de las Cañas)","1487","800",,,,"Fijo","26.93352461","-101.31179702","OCTUBRE 2016"
"6299429","MINA DOLOMITA","MAGNELEC SA DE CV","212311","Minería de piedra caliza","11 a 30 personas",,"NINGUNO",,"NINGUNO",,"NINGUNO",,"NINGUNO",,"SN",,,,,"EJIDO","LA ESMERALDA",,,,"27610","05","COAHUILA DE ZARAGOZA","034","Sierra Mojada","0171","Las Minas","1207","800",,,,"Fijo","27.26840114","-103.66238192","JULIO 2010"
"6186282","MINA LA SABINA BUENAVISTA","FLUORITA DE MEXICO, S.A. DE C.V.","212395","Minería de fluorita","101 a 250 personas","CALLE","ZARAGOZA","CALLE","NINGUNO","CALLE","NINGUNO","CALLE","SANTA ROSA","245",,,,"0",,"COLONIA","ZONA CENTRO",,,,"26340","05","COAHUILA DE ZARAGOZA","020","Múzquiz","0001","Ciudad Melchor Múzquiz","1184","042","8646161111",,,"Fijo","27.8824692","-101.51256436","JULIO 2010"
"6708538","MINA LA SABINA BUENAVISTA","FLUORITA DE MEXICO, S.A. DE C.V.","212395","Minería de fluorita","11 a 30 personas","CALLE","AV. PARQUE","CALLE","NINGUNO","CALLE","NINGUNO","CALLE","SANTA ROSA","245",,,,,,"COLONIA","ZONA CENTRO",,,,"26340","05","COAHUILA DE ZARAGOZA","020","Múzquiz","0001","Ciudad Melchor Múzquiz","1184","042","8646161111",,,"Fijo","27.88188619","-101.51314512","ENERO 2016"
"6186357","MINAS DE BARITA, S. DE R.L. DE C.V.","MINAS DE BARITA, S. DE R.L. DE C.V.","212399","Minería de otros minerales no metálicos","0 a 5 personas","CALLE","MOLIERE",,,,,,,"30","SN",,,"0",,"COLONIA","POLANCO CHAPULTEPEC",,,,,"05","COAHUILA DE ZARAGOZA","007","Cuatro Ciénegas","0199","Estroncios de México (San Martín) [Mina]","1549","800","52803978","FIDELCASTRO@MINASDECELESTITA.COM",,"Fijo","26.35079389","-102.46421983","DICIEMBRE 2014"
"6186373","MINAS DE CELESTITA S.A. C.V.","MINAS DE CELESTITA, S.A. C.V.","212399","Minería de otros minerales no metálicos","6 a 10 personas","AVENIDA","MOLIERE","CALLE","MOLIERE","AVENIDA","CAMPOS ELÍSEOS",,,"39",,"7",,"0",,"COLONIA","COLONIA POLANCO CHAPULTEPEC",,,,,"05","COAHUILA DE ZARAGOZA","007","Cuatro Ciénegas","0001","Cuatro Ciénegas de Carranza","0894","006","52803978",,,"Fijo","26.98551697","-102.06647846","DICIEMBRE 2014"
"6186358","MINAS DE CELESTITA, S.A. DE C.V.","MINAS DE CELESTITA, S.A. DE C.V.","212399","Minería de otros minerales no metálicos","0 a 5 personas","CALLE","NINGUNO",,,,,,,"39",,,,"0",,"COLONIA","POLANCO CHAPULTEPEC",,,,,"05","COAHUILA DE ZARAGOZA","033","San Pedro","0436","San Carlos","1445","800","52803978","FIDELCASTRO@MINASDECELESTITA.COM",,"Fijo","25.90313596","-102.96963003","DICIEMBRE 2014"
"6186289","MINERA 2G, S.A. DE C.V.","MINERA 2G, S.A. DE C.V.","212110","Minería de carbón mineral","11 a 30 personas","PRIVADA","NINGUNO","CALLE","CARRETERA A LAS CONCHAS","CAMINO","NINGUNO","CALLE","NINGUNO","0","KILÓMETRO 1118",,,"0",,"EJIDO","EJIDO GUADALUPE VICTORIA",,,,"26950","05","COAHUILA DE ZARAGOZA","028","Sabinas","0001","Sabinas","0875","005","018616130650",,,"Fijo","27.88911443","-101.15101051","JULIO 2010"
"6189069","MINERA BISMARK, S.A. DE C.V.","MINERA BISMARK, S.A. DE C.V.","212232","Minería de plomo y zinc","0 a 5 personas","CALLE","CORTÉS","CALLE","TURÍN","CALLE","ALCALÁ","CALLE","CORTEZ","444",,,,"0",,"COLONIA","TORREÓN RESIDENCIAL",,,,"27268","05","COAHUILA DE ZARAGOZA","035","Torreón","0001","Torreón","0475","058","8719293300","OMARRANGEL@PENOLES.COM","WWW.PENOLES.COM.MX","Fijo","25.523642","-103.400749","MARZO 2011"
"6189057","MINERA CARBONIFERA DEL NORESTE",,"212110","Minería de carbón mineral","0 a 5 personas","BOULEVARD","HAROLD R. PAPE","CALLE","MAR ADRIÁTICO","CALLE","ROSAS",,,"1064",,,,"0",,"COLONIA","JARDINES DEL VALLE",,,,"25730","05","COAHUILA DE ZARAGOZA","018","Monclova","0001","Monclova","0402","012","8661052830",,,"Fijo","26.931669","-101.415438","JULIO 2010"
"6189054","MINERA CARBONIFERA DEL NORTE, S.A. DE C.V.","MINERA CARBONIFERA DEL NORTE, S.A. DE C.V.","212110","Minería de carbón mineral","0 a 5 personas","BOULEVARD","HAROLD R. PAPE","CALLE","2","CALLE","1","CALLE","14","0","SN",,,"0",,"FRACCIONAMIENTO","INDUSTRIAL",,,,"25790","05","COAHUILA DE ZARAGOZA","018","Monclova","0001","Monclova","1237","007",,,,"Fijo","26.86390243","-101.42741116","JULIO 2010"
"6186257","MINERA CARBONIFERA EL JUNCO",,"212110","Minería de carbón mineral","51 a 100 personas","CARRETERA","57",,,,,,,"0","SN",,,"0",,"COLONIA","LAS FLORES",,,,"26780","05","COAHUILA DE ZARAGOZA","032","San Juan de Sabinas","7212","Localidad económica","0187","800","8616145526",,,"Fijo","27.98083333","-101.426667","JULIO 2010"
"6724555","MINERA CARBONIFERA EL JUNCO",,"212110","Minería de carbón mineral","0 a 5 personas","CARRETERA","57",,,,,,,,"SN",,,,,"COLONIA","LAS FLORES",,,,"26780","05","COAHUILA DE ZARAGOZA","032","San Juan de Sabinas","7212","Localidad económica","0187","800","8616145526",,,"Fijo","27.98083906","-101.4266682","ENERO 2016"
"6186307","MINERA CARBONIFERA LOS LIRIOS, S.A. DE C.V.","MINERA CARBONIFERA LOS LIRIOS, S.A. DE C.V.","212110","Minería de carbón mineral","31 a 50 personas","CALLE","AVENIDA PRIMERO DE MAYO","CALLE","AVE.IGNACIO ZARAGOZA","CALLE","FRANCISCO I MADERO","AVENIDA","5 DE MAYO","173",,,,"0",,"COLONIA","CENTRO",,,,"26700","05","COAHUILA DE ZARAGOZA","028","Sabinas","0001","Sabinas","0470","026","8616128530",,,"Fijo","27.85025815","-101.12282703","JULIO 2010"
"6186216","MINERA CARBONIFERA LOS PENCOS","MINERA CARBONIFERA LOS PENCOS, S.A. DE C.V.","212110","Minería de carbón mineral","0 a 5 personas","CALLE","IGNACIO CEPEDA","CAMINO","NINGUNO","CAMINO","NINGUNO","CALLE","DOM .CONOCIDO","0","SN",,,"0",,"EJIDO","EJIDO SAN ALBERT0",,,,"26780","05","COAHUILA DE ZARAGOZA","028","Sabinas","0001","Sabinas","0432","020","18616124436","CP_ERASMO@HOTMAIL.COM",,"Fijo","27.85537182","-101.13541407","MARZO 2011"
